$GPGSV,3,1,09,23,77,069,44,13,67,211,42,04,51,298,44,20,49,084,37*7F
$GPGSV,3,2,09,11,11,155,35,02,09,314,,25,08,033,,10,05,276,*73
$GPGSV,3,3,09,00,00,000,*40
$GPRMC,132925.94,A,4545.6394,N,00307.0866,E,000.0,000.0,010310,000.1,W,A*22
$GPGGA,132925.94,4545.6394,N,00307.0866,E,1,05,02.1,00405.8,M,0047.4,M,,*53
$GPGSA,A,3,23,13,04,20,11,,,,,,,,03.3,02.1,02.6*00
$GPGSV,3,1,09,23,77,069,44,13,67,211,42,04,51,298,44,20,49,084,37*7F
$GPGSV,3,2,09,11,11,155,35,02,09,314,,25,08,033,,10,05,276,*73
$GPGSV,3,3,09,00,00,000,*40
$GPRMC,132926.94,A,4545.6394,N,00307.0866,E,000.0,000.0,010310,000.1,W,A*21
$GPGGA,132926.94,4545.6394,N,00307.0866,E,1,05,02.1,00405.8,M,0047.4,M,,*50
$GPGSA,A,3,23,13,04,20,11,,,,,,,,03.3,02.1,02.6*00
$GPGSV,3,1,09,23,77,069,44,13,67,211,42,04,51,298,44,20,49,084,37*7F
$GPGSV,3,2,09,11,11,155,35,02,09,314,,25,08,033,,10,05,276,*73
$GPGSV,3,3,09,00,00,000,*40
$GPRMC,132927.94,A,4545.6394,N,00307.0866,E,000.0,000.0,010310,000.1,W,A*20
$GPGGA,132927.94,4545.6394,N,00307.0866,E,1,05,02.1,00405.8,M,0047.4,M,,*51
$GPGSA,A,3,23,13,04,20,11,,,,,,,,03.3,02.1,02.6*00
$GPGSV,3,1,09,23,77,069,44,13,67,211,42,04,51,298,44,20,49,084,37*7F
$GPGSV,3,2,09,11,11,155,35,02,09,314,,25,08,033,,10,05,276,*73
$GPGSV,3,3,09,00,00,000,*40
$GPRMC,132928.94,A,4545.6394,N,00307.0866,E,000.0,000.0,010310,000.1,W,A*2F
$GPGGA,132928.94,4545.6394,N,00307.0866,E,1,05,02.1,00405.8,M,0047.4,M,,*5E
$GPGSA,A,3,23,13,04,20,11,,,,,,,,03.3,02.1,02.6*00
$GPGSV,3,1,09,23,77,069,44,13,67,211,42,04,51,298,44,20,49,084,37*7F
$GPGSV,3,2,09,11,11,155,35,02,09,314,,25,08,033,,10,06,276,*70
$GPGSV,3,3,09,00,00,000,*40
$GPRMC,132929.94,A,4545.6394,N,00307.0866,E,000.0,000.0,010310,000.1,W,A*2E
$GPGGA,132929.94,4545.6394,N,00307.0866,E,1,05,02.1,00405.8,M,0047.4,M,,*5F
$GPGSA,A,3,23,13,04,20,11,,,,,,,,03.3,02.1,02.6*00
$GPGSV,3,1,09,23,77,069,45,13,67,211,43,04,51,298,44,20,49,084,37*7F
$GPGSV,3,2,09,11,10,155,35,02,09,314,,25,08,033,,10,06,276,*71
$GPGSV,3,3,09,00,00,000,*40
$GPRMC,132930.94,A,4545.6394,N,00307.0866,E,000.0,000.0,010310,000.1,W,A*26
$GPGGA,132930.94,4545.6394,N,00307.0866,E,1,05,02.1,00405.8,M,0047.4,M,,*57
$GPGSA,A,3,23,13,04,20,11,,,,,,,,03.3,02.1,02.6*00
$GPGSV,3,1,09,23,77,069,45,13,67,212,43,04,51,298,44,20,49,084,37*7C
$GPGSV,3,2,09,11,10,155,34,02,09,314,,25,08,033,,10,06,276,*70
$GPGSV,3,3,09,00,00,000,*40
$GPRMC,132931.94,A,4545.6394,N,00307.0866,E,000.0,000.0,010310,000.1,W,A*27
$GPGGA,132931.94,4545.6394,N,00307.0866,E,1,05,02.1,00405.8,M,0047.4,M,,*56
$GPGSA,A,3,23,13,04,20,11,,,,,,,,03.3,02.1,02.6*00
$GPGSV,3,1,09,23,77,069,45,13,67,212,43,04,51,298,44,20,49,084,37*7C
$GPGSV,3,2,09,11,10,155,33,02,09,314,,25,08,033,,10,06,276,*77
$GPGSV,3,3,09,00,00,000,*40
$GPRMC,132932.94,A,4545.6394,N,00307.0866,E,000.2,000.0,010310,000.1,W,A*26
$GPGGA,132932.94,4545.6394,N,00307.0866,E,1,05,02.1,00405.8,M,0047.4,M,,*55
$GPGSA,A,3,23,13,04,20,11,,,,,,,,03.3,02.1,02.6*00
$GPGSV,3,1,09,23,77,069,45,13,67,212,43,04,51,298,45,20,49,084,37*7D
$GPGSV,3,2,09,11,10,155,32,02,09,314,,25,08,033,,10,06,276,*76
$GPGSV,3,3,09,00,00,000,*40
$GPRMC,132933.94,A,4545.6394,N,00307.0866,E,000.3,332.5,010310,000.1,W,A*21
$GPGGA,132933.94,4545.6394,N,00307.0866,E,1,04,02.9,00405.8,M,0047.4,M,,*5D
$GPGSA,A,3,23,13,04,20,,,,,,,,,07.1,02.9,06.5*09
$GPGSV,3,1,09,23,77,069,45,13,67,212,43,04,51,298,45,20,49,084,36*7C
$GPGSV,3,2,09,11,10,155,31,02,09,314,,25,08,033,,10,06,276,*75
$GPGSV,3,3,09,00,00,000,*40
$GPRMC,132934.94,A,4545.6394,N,00307.0866,E,000.8,310.7,010310,000.1,W,A*2F
$GPGGA,132934.94,4545.6394,N,00307.0866,E,1,05,02.1,00405.8,M,0047.4,M,,*53
$GPGSA,A,3,23,13,04,20,11,,,,,,,,03.3,02.1,02.6*00
$GPGSV,3,1,09,23,77,069,45,13,67,212,43,04,51,298,45,20,49,084,36*7C
$GPGSV,3,2,09,11,10,155,31,02,09,314,,25,08,033,,10,06,276,*75
$GPGSV,3,3,09,00,00,000,*40
$GPRMC,132935.94,A,4545.6394,N,00307.0866,E,004.4,293.1,010310,000.1,W,A*2A
$GPGGA,132935.94,4545.6394,N,00307.0866,E,1,05,03.2,00405.8,M,0047.4,M,,*50
$GPGSA,A,3,23,13,04,20,11,,,,,,,,04.1,03.2,02.6*07
$GPGSV,3,1,09,23,77,069,45,13,67,212,42,04,51,298,45,20,49,084,35*7E
$GPGSV,3,2,09,11,10,155,29,02,09,314,,25,08,033,,10,06,276,*7C
$GPGSV,3,3,09,00,00,000,*40
$GPRMC,132936.94,A,4545.6394,N,00307.0866,E,004.6,272.5,010310,000.1,W,A*20
$GPGGA,132936.94,4545.6394,N,00307.0866,E,1,04,02.9,00405.8,M,0047.4,M,,*58
$GPGSA,A,3,23,13,04,20,,,,,,,,,07.1,02.9,06.5*09
$GPGSV,3,1,09,23,77,069,45,13,67,212,42,04,51,298,46,20,49,084,36*7E
$GPGSV,3,2,09,11,10,155,29,02,09,314,,25,08,033,,10,06,276,*7C
$GPGSV,3,3,09,00,00,000,*40
$GPRMC,132937.94,A,4545.6452,N,00307.0831,E,005.2,258.6,010310,000.1,W,A*20
$GPGGA,132937.94,4545.6452,N,00307.0831,E,1,04,02.9,00420.3,M,0047.4,M,,*5A
$GPGSA,A,3,23,13,04,20,,,,,,,,,07.1,02.9,06.5*09
$GPGSV,3,1,09,23,77,069,45,13,67,212,42,04,51,298,46,20,49,084,36*7E
$GPGSV,3,2,09,11,10,155,29,02,09,314,,25,08,033,,10,06,276,*7C
$GPGSV,3,3,09,00,00,000,*40
$GPRMC,132938.94,A,4545.6438,N,00307.0811,E,006.0,249.1,010310,000.1,W,A*27
$GPGGA,132938.94,4545.6438,N,00307.0811,E,1,04,03.5,00420.6,M,0047.4,M,,*53
$GPGSA,A,3,23,13,04,20,,,,,,,,,07.4,03.5,06.5*01
$GPGSV,3,1,09,23,77,069,45,13,67,212,42,04,51,298,46,20,49,084,35*7D
$GPGSV,3,2,09,11,10,155,25,02,09,314,,25,08,033,,10,06,276,*70
$GPGSV,3,3,09,00,00,000,*40
$GPRMC,132939.94,A,4545.6419,N,00307.0785,E,006.1,242.6,010310,000.1,W,A*2A
$GPGGA,132939.94,4545.6419,N,00307.0785,E,1,04,03.5,00420.9,M,0047.4,M,,*5C
$GPGSA,A,3,23,13,04,20,,,,,,,,,07.4,03.5,06.6*02
$GPGSV,3,1,09,23,76,069,45,13,67,212,41,04,51,298,46,20,49,084,33*79
$GPGSV,3,2,09,11,10,155,23,02,09,314,,25,08,033,,10,06,276,*76
$GPGSV,3,3,09,00,00,000,*40
$GPRMC,132940.94,A,4545.6406,N,00307.0762,E,006.2,235.3,010310,000.1,W,A*25
$GPGGA,132940.94,4545.6406,N,00307.0762,E,1,05,02.1,00420.0,M,0047.4,M,,*58
$GPGSA,A,3,23,13,04,20,11,,,,,,,,03.3,02.1,02.6*00
$GPGSV,3,1,09,23,76,069,46,13,67,212,41,04,51,298,46,20,49,084,34*7D
$GPGSV,3,2,09,11,10,155,26,02,09,314,,25,08,033,,10,06,276,*73
$GPGSV,3,3,09,00,00,000,*40
$GPRMC,132941.94,A,4545.6393,N,00307.0740,E,006.3,231.5,010310,000.1,W,A*2C
$GPGGA,132941.94,4545.6393,N,00307.0740,E,1,05,02.1,00419.6,M,0047.4,M,,*5E
$GPGSA,A,3,23,13,04,20,11,,,,,,,,03.3,02.1,02.6*00
$GPGSV,3,1,09,23,76,069,46,13,67,212,42,04,51,298,47,20,49,084,35*7E
$GPGSV,3,2,09,11,10,155,29,02,09,314,,25,08,033,,10,06,276,*7C
$GPGSV,3,3,09,00,00,000,*40
$GPRMC,132942.94,A,4545.6377,N,00307.0714,E,006.8,229.8,010310,000.1,W,A*2B
$GPGGA,132942.94,4545.6377,N,00307.0714,E,1,04,02.9,00420.5,M,0047.4,M,,*56
$GPGSA,A,3,23,13,04,20,,,,,,,,,07.1,02.9,06.5*09
$GPGSV,3,1,09,23,76,069,46,13,67,212,42,04,51,298,47,20,49,084,36*7D
$GPGSV,3,2,09,11,10,155,29,02,09,314,,25,08,033,,10,06,276,*7C
$GPGSV,3,3,09,00,00,000,*40
$GPRMC,132943.94,A,4545.6357,N,00307.0689,E,007.3,228.2,010310,000.1,W,A*2C
$GPGGA,132943.94,4545.6357,N,00307.0689,E,1,04,02.9,00421.1,M,0047.4,M,,*55
$GPGSA,A,3,23,13,04,20,,,,,,,,,07.1,02.9,06.5*09
$GPGSV,3,1,09,23,76,069,46,13,67,212,42,04,51,298,47,20,49,084,37*7C
$GPGSV,3,2,09,11,10,155,28,02,09,314,,25,08,033,,10,06,276,*7D
$GPGSV,3,3,09,00,00,000,*40
$GPRMC,132944.94,A,4545.6338,N,00307.0658,E,008.1,226.6,010310,000.1,W,A*29
$GPGGA,132944.94,4545.6338,N,00307.0658,E,1,04,03.5,00421.7,M,0047.4,M,,*5C
$GPGSA,A,3,23,13,04,20,,,,,,,,,07.4,03.5,06.5*01
$GPGSV,3,1,09,23,76,069,46,13,67,212,42,04,51,298,47,20,49,084,36*7D
$GPGSV,3,2,09,11,10,155,23,02,09,314,,25,08,033,,10,06,276,*76
$GPGSV,3,3,09,00,00,000,*40
$GPRMC,132945.94,A,4545.6317,N,00307.0634,E,008.4,224.9,010310,000.1,W,A*27
$GPGGA,132945.94,4545.6317,N,00307.0634,E,1,04,03.5,00422.2,M,0047.4,M,,*5C
$GPGSA,A,3,23,13,04,20,,,,,,,,,07.4,03.5,06.6*02
$GPGSV,3,1,09,23,76,069,46,13,67,212,41,04,51,298,46,20,49,084,35*7C
$GPGSV,3,2,09,11,10,155,21,02,09,314,,25,08,033,,10,06,276,*74
$GPGSV,3,3,09,00,00,000,*40
$GPRMC,132946.94,A,4545.6299,N,00307.0611,E,008.3,224.0,010310,000.1,W,A*2A
$GPGGA,132946.94,4545.6299,N,00307.0611,E,1,04,02.9,00422.1,M,0047.4,M,,*51
$GPGSA,A,3,23,13,04,20,,,,,,,,,07.1,02.9,06.5*09
$GPGSV,3,1,09,23,76,069,46,13,67,212,42,04,51,298,46,20,49,084,37*7D
$GPGSV,3,2,09,11,10,155,24,02,09,314,,25,08,033,,10,06,276,*71
$GPGSV,3,3,09,00,00,000,*40
$GPRMC,132947.94,A,4545.6282,N,00307.0588,E,008.0,224.1,010310,000.1,W,A*20
$GPGGA,132947.94,4545.6282,N,00307.0588,E,1,04,02.9,00421.6,M,0047.4,M,,*5D
$GPGSA,A,3,23,13,04,20,,,,,,,,,07.1,02.9,06.5*09
$GPGSV,3,1,09,23,76,069,47,13,67,212,42,04,51,298,47,20,49,084,38*72
$GPGSV,3,2,09,11,10,155,27,02,09,314,,25,08,033,,10,06,276,*72
$GPGSV,3,3,09,00,00,000,*40
$GPRMC,132948.94,A,4545.6268,N,00307.0565,E,007.8,225.1,010310,000.1,W,A*2E
$GPGGA,132948.94,4545.6268,N,00307.0565,E,1,06,01.5,00421.4,M,0047.4,M,,*5A
$GPGSA,A,3,23,13,04,20,11,02,,,,,,,02.0,01.5,01.3*01
$GPGSV,3,1,09,23,76,069,47,13,67,212,43,04,51,298,47,20,49,084,39*72
$GPGSV,3,2,09,11,10,155,30,02,09,314,44,25,08,033,,10,06,276,*74
$GPGSV,3,3,09,00,00,000,*40
$GPRMC,132949.94,A,4545.6256,N,00307.0541,E,007.3,228.3,010310,000.1,W,A*20
$GPGGA,132949.94,4545.6256,N,00307.0541,E,1,06,01.5,00421.1,M,0047.4,M,,*55
$GPGSA,A,3,23,13,04,20,11,02,,,,,,,02.0,01.5,01.3*01
$GPGSV,3,1,09,23,76,069,47,13,67,212,43,04,51,298,46,20,49,084,40*7D
$GPGSV,3,2,09,11,10,155,30,02,09,314,43,25,08,033,,10,06,276,*73
$GPGSV,3,3,09,00,00,000,*40
$GPRMC,132950.94,A,4545.6245,N,00307.0518,E,007.1,231.4,010310,000.1,W,A*2B
$GPGGA,132950.94,4545.6245,N,00307.0518,E,1,06,01.5,00421.4,M,0047.4,M,,*56
$GPGSA,A,3,23,13,04,20,11,02,,,,,,,02.0,01.5,01.3*01
$GPGSV,3,1,09,23,76,069,47,13,67,212,42,04,51,298,45,20,49,084,40*7F
$GPGSV,3,2,09,11,10,155,27,02,09,314,42,25,08,033,,10,06,276,*74
$GPGSV,3,3,09,00,00,000,*40
$GPRMC,132951.94,A,4545.6240,N,00307.0495,E,006.0,238.9,010310,000.1,W,A*2F
$GPGGA,132951.94,4545.6240,N,00307.0495,E,1,06,01.5,00420.3,M,0047.4,M,,*50
$GPGSA,A,3,23,13,04,20,11,02,,,,,,,02.0,01.5,01.3*01
$GPGSV,3,1,09,23,76,069,48,13,67,212,41,04,51,298,45,20,49,084,41*72
$GPGSV,3,2,09,11,10,155,29,02,09,314,41,25,08,033,,10,06,276,*79
$GPGSV,3,3,09,00,00,000,*40
$GPRMC,132952.94,A,4545.6241,N,00307.0469,E,004.8,251.1,010310,000.1,W,A*23
$GPGGA,132952.94,4545.6241,N,00307.0469,E,1,06,01.5,00418.8,M,0047.4,M,,*51
$GPGSA,A,3,23,13,04,20,11,02,,,,,,,02.0,01.5,01.3*01
$GPGSV,3,1,09,23,76,069,48,13,67,212,40,04,51,298,45,20,49,084,42*70
$GPGSV,3,2,09,11,10,155,31,02,09,314,39,25,08,033,,10,06,276,*7F
$GPGSV,3,3,09,00,00,000,*40
$GPRMC,132953.94,A,4545.6239,N,00307.0451,E,004.3,259.2,010310,000.1,W,A*26
$GPGGA,132953.94,4545.6239,N,00307.0451,E,1,04,02.9,00415.8,M,0047.4,M,,*54
$GPGSA,A,3,23,13,04,20,,,,,,,,,07.1,02.9,06.5*09
$GPGSV,3,1,09,23,76,069,48,13,67,212,39,04,51,298,44,20,49,084,42*7F
$GPGSV,3,2,09,11,10,155,32,02,09,314,37,25,08,033,,10,06,276,*72
$GPGSV,3,3,09,00,00,000,*40
$GPRMC,132954.94,A,4545.6244,N,00307.0437,E,004.1,267.4,010310,000.1,W,A*22
$GPGGA,132954.94,4545.6244,N,00307.0437,E,1,04,30.0,00415.8,M,0047.4,M,,*51
$GPGSA,A,3,23,13,04,20,11,02,,,,,,,30.8,30.0,06.6*0D
$GPGSV,3,1,09,23,76,069,48,13,67,212,38,04,51,298,43,20,49,084,42*79
$GPGSV,3,2,09,11,10,155,31,02,09,314,35,25,08,033,,10,06,276,*73
$GPGSV,3,3,09,00,00,000,*40
$GPRMC,132955.94,A,4545.6241,N,00307.0417,E,004.2,273.2,010310,000.1,W,A*24
$GPGGA,132955.94,4545.6241,N,00307.0417,E,1,05,02.9,00414.2,M,0047.4,M,,*55
$GPGSA,A,3,23,13,04,20,,02,,,,,,,04.2,02.9,03.1*0A
$GPGSV,3,1,09,23,76,069,48,13,67,212,38,04,51,298,44,20,49,084,42*7E
$GPGSV,3,2,09,11,10,155,31,02,10,314,33,25,08,033,,10,06,276,*7D
$GPGSV,3,3,09,00,00,000,*40
$GPRMC,132956.94,A,4545.6233,N,00307.0390,E,005.9,248.0,010310,000.1,W,A*2A
$GPGGA,132956.94,4545.6233,N,00307.0390,E,1,06,01.5,00414.9,M,0047.4,M,,*5C
$GPGSA,A,3,23,13,04,20,11,02,,,,,,,02.0,01.5,01.3*01
$GPGSV,3,1,09,23,76,069,48,13,67,212,39,04,51,298,44,20,49,084,42*7F
$GPGSV,3,2,09,11,10,155,32,02,10,314,33,25,08,033,,10,06,276,*7E
$GPGSV,3,3,09,00,00,000,*40
$GPRMC,132957.94,A,4545.6216,N,00307.0367,E,008.3,235.3,010310,000.1,W,A*2A
$GPGGA,132957.94,4545.6216,N,00307.0367,E,1,06,01.5,00416.6,M,0047.4,M,,*5F
$GPGSA,A,3,23,13,04,20,11,02,,,,,,,02.0,01.5,01.3*01
$GPGSV,3,1,09,23,76,069,48,13,67,212,38,04,52,297,43,20,49,084,41*76
$GPGSV,3,2,09,11,10,155,31,02,10,314,31,25,08,033,,10,06,276,*7F
$GPGSV,3,3,09,00,00,000,*40
$GPRMC,132958.94,A,4545.6200,N,00307.0341,E,008.5,231.5,010310,000.1,W,A*22
$GPGGA,132958.94,4545.6200,N,00307.0341,E,1,04,02.9,00419.7,M,0047.4,M,,*50
$GPGSA,A,3,23,13,04,20,,,,,,,,,07.1,02.9,06.5*09
$GPGSV,3,1,09,23,76,069,47,13,67,212,40,04,52,297,44,20,49,084,39*7E
$GPGSV,3,2,09,11,10,155,30,02,10,314,28,25,08,033,,10,06,276,*76
$GPGSV,3,3,09,00,00,000,*40
$GPRMC,132959.94,A,4545.6178,N,00307.0313,E,008.8,228.9,010310,000.1,W,A*21
$GPGGA,132959.94,4545.6178,N,00307.0313,E,1,04,02.9,00418.2,M,0047.4,M,,*5E
$GPGSA,A,3,23,13,04,20,,,,,,,,,07.1,02.9,06.5*09
$GPGSV,3,1,09,23,76,069,46,13,67,212,41,04,52,297,44,20,49,084,38*7F
$GPGSV,3,2,09,11,10,155,30,02,10,314,25,25,08,033,,10,06,276,*7B
$GPGSV,3,3,09,00,00,000,*40
$GPRMC,133000.94,A,4545.6151,N,00307.0282,E,010.0,227.0,010310,000.1,W,A*20
$GPGGA,133000.94,4545.6151,N,00307.0282,E,1,04,02.9,00415.1,M,0047.4,M,,*56
$GPGSA,A,3,23,13,04,20,,,,,,,,,07.1,02.9,06.5*09
$GPGSV,3,1,09,23,76,069,45,13,67,212,41,04,52,297,44,20,49,084,37*73
$GPGSV,3,2,09,11,10,155,30,02,10,314,23,25,08,033,,10,06,276,*7D
$GPGSV,3,3,09,00,00,000,*40
$GPRMC,133001.94,A,4545.6128,N,00307.0251,E,011.7,226.2,010310,000.1,W,A*24
$GPGGA,133001.94,4545.6128,N,00307.0251,E,1,04,03.5,00414.9,M,0047.4,M,,*53
$GPGSA,A,3,23,13,04,20,,,,,,,,,07.4,03.5,06.5*01
$GPGSV,3,1,09,23,76,069,45,13,67,212,41,04,52,297,43,20,49,084,36*75
$GPGSV,3,2,09,11,10,155,26,02,10,314,22,25,08,033,,10,06,276,*7B
$GPGSV,3,3,09,00,00,000,*40
$GPRMC,133002.94,A,4545.6103,N,00307.0217,E,012.4,226.0,010310,000.1,W,A*2E
$GPGGA,133002.94,4545.6103,N,00307.0217,E,1,04,03.5,00414.6,M,0047.4,M,,*54
$GPGSA,A,3,23,13,04,20,,,,,,,,,07.4,03.5,06.5*01
$GPGSV,3,1,09,23,76,069,44,13,67,212,40,04,52,297,42,20,49,084,34*76
$GPGSV,3,2,09,11,10,155,24,02,10,314,22,25,08,033,,10,06,276,*79
$GPGSV,3,3,09,00,00,000,*40
$GPRMC,133003.94,A,4545.6077,N,00307.0180,E,012.6,225.1,010310,000.1,W,A*20
$GPGGA,133003.94,4545.6077,N,00307.0180,E,1,05,02.1,00413.9,M,0047.4,M,,*56
$GPGSA,A,3,23,13,04,20,11,,,,,,,,03.3,02.1,02.6*00
$GPGSV,3,1,09,23,76,069,44,13,67,212,41,04,52,297,44,20,49,084,35*70
$GPGSV,3,2,09,11,10,155,27,02,10,314,19,25,08,033,,10,06,276,*72
$GPGSV,3,3,09,00,00,000,*40
$GPRMC,133004.94,A,4545.6052,N,00307.0142,E,012.2,228.3,010310,000.1,W,A*25
$GPGGA,133004.94,4545.6052,N,00307.0142,E,1,05,02.1,00413.3,M,0047.4,M,,*52
$GPGSA,A,3,23,13,04,20,11,,,,,,,,03.3,02.1,02.6*00
$GPGSV,3,1,09,23,76,069,44,13,67,212,41,04,52,297,45,20,49,084,36*72
$GPGSV,3,2,09,11,10,155,28,02,10,314,19,25,08,033,,10,06,276,*7D
$GPGSV,3,3,09,00,00,000,*40
$GPRMC,133005.94,A,4545.6034,N,00307.0104,E,011.4,230.4,010310,000.1,W,A*2D
$GPGGA,133005.94,4545.6034,N,00307.0104,E,1,04,02.9,00414.5,M,0047.4,M,,*59
$GPGSA,A,3,23,13,04,20,,,,,,,,,07.1,02.9,06.5*09
$GPGSV,3,1,09,23,76,069,44,13,68,212,41,04,52,297,46,20,49,084,37*7F
$GPGSV,3,2,09,11,10,155,30,02,10,314,17,25,08,033,,10,06,276,*7A
$GPGSV,3,3,09,00,00,000,*40
$GPRMC,133006.94,A,4545.6021,N,00307.0067,E,010.6,233.8,010310,000.1,W,A*22
$GPGGA,133006.94,4545.6021,N,00307.0067,E,1,04,02.9,00415.4,M,0047.4,M,,*5A
$GPGSA,A,3,23,13,04,20,,,,,,,,,07.1,02.9,06.5*09
$GPGSV,3,1,09,23,76,069,45,13,68,212,41,04,52,297,46,20,49,084,38*71
$GPGSV,3,2,09,11,10,155,31,02,10,314,18,25,08,033,,10,06,276,*74
$GPGSV,3,3,09,00,00,000,*40
$GPRMC,133007.94,A,4545.6000,N,00307.0024,E,011.2,237.7,010310,000.1,W,A*29
$GPGGA,133007.94,4545.6000,N,00307.0024,E,1,04,02.9,00411.5,M,0047.4,M,,*5A
$GPGSA,A,3,23,13,04,20,,,,,,,,,07.1,02.9,06.5*09
$GPGSV,3,1,09,23,76,069,46,13,68,212,41,04,52,297,46,20,49,084,39*73
$GPGSV,3,2,09,11,10,155,29,02,10,314,18,25,08,033,,10,06,276,*7D
$GPGSV,3,3,09,00,00,000,*40
$GPRMC,133008.94,A,4545.5992,N,00306.9982,E,011.5,240.1,010310,000.1,W,A*2B
$GPGGA,133008.94,4545.5992,N,00306.9982,E,1,04,02.9,00409.9,M,0047.4,M,,*5C
$GPGSA,A,3,23,13,04,20,,,,,,,,,07.1,02.9,06.5*09
$GPGSV,3,1,09,23,76,069,46,13,68,212,41,04,52,297,45,20,49,084,40*7E
$GPGSV,3,2,09,11,10,155,28,02,10,314,17,25,08,033,,10,06,276,*73
$GPGSV,3,3,09,00,00,000,*40
$GPRMC,133009.94,A,4545.5973,N,00306.9939,E,011.7,238.4,010310,000.1,W,A*2D
$GPGGA,133009.94,4545.5973,N,00306.9939,E,1,05,02.1,00409.8,M,0047.4,M,,*5A
$GPGSA,A,3,23,13,04,20,11,,,,,,,,03.3,02.1,02.6*00
$GPGSV,3,1,09,23,76,069,46,13,68,212,41,04,52,297,45,20,49,084,40*7E
$GPGSV,3,2,09,11,10,155,30,02,10,314,16,25,08,033,,10,06,276,*7B
$GPGSV,3,3,09,00,00,000,*40
$GPRMC,133010.94,A,4545.5952,N,00306.9901,E,012.0,232.1,010310,000.1,W,A*26
$GPGGA,133010.94,4545.5952,N,00306.9901,E,1,05,03.2,00409.8,M,0047.4,M,,*58
$GPGSA,A,3,23,13,04,20,11,,,,,,,,04.1,03.2,02.6*07
$GPGSV,3,1,09,23,76,069,46,13,68,212,41,04,52,297,44,20,49,084,39*71
$GPGSV,3,2,09,11,10,155,29,02,10,314,16,25,08,033,,10,06,276,*73
$GPGSV,3,3,09,00,00,000,*40
$GPRMC,133011.94,A,4545.5928,N,00306.9874,E,011.3,222.5,010310,000.1,W,A*2C
$GPGGA,133011.94,4545.5928,N,00306.9874,E,1,05,02.1,00410.5,M,0047.4,M,,*50
$GPGSA,A,3,23,13,04,20,11,,,,,,,,03.3,02.1,02.6*00
$GPGSV,3,1,09,23,76,069,46,13,68,212,42,04,52,297,43,20,49,084,37*7B
$GPGSV,3,2,09,11,10,155,29,02,10,314,16,25,08,033,,10,06,276,*73
$GPGSV,3,3,09,00,00,000,*40
$GPRMC,133012.94,A,4545.5901,N,00306.9849,E,011.6,215.3,010310,000.1,W,A*2D
$GPGGA,133012.94,4545.5901,N,00306.9849,E,1,04,02.9,00410.3,M,0047.4,M,,*59
$GPGSA,A,3,23,13,04,20,,,,,,,,,07.1,02.9,06.5*09
$GPGSV,3,1,09,23,76,069,46,13,68,212,43,04,52,297,43,20,49,084,35*78
$GPGSV,3,2,09,11,10,155,29,02,10,314,17,25,08,033,,10,06,276,*72
$GPGSV,3,3,09,00,00,000,*40
$GPRMC,133013.94,A,4545.5867,N,00306.9836,E,011.8,207.5,010310,000.1,W,A*2E
$GPGGA,133013.94,4545.5867,N,00306.9836,E,1,04,02.9,00409.9,M,0047.4,M,,*53
$GPGSA,A,3,23,13,04,20,,,,,,,,,07.1,02.9,06.5*09
$GPGSV,3,1,09,23,76,069,45,13,68,212,44,04,52,297,43,20,49,084,34*7D
$GPGSV,3,2,09,11,10,155,28,02,10,314,16,25,08,033,,10,06,276,*72
$GPGSV,3,3,09,00,00,000,*40
$GPRMC,133014.94,A,4545.5835,N,00306.9829,E,011.7,197.6,010310,000.1,W,A*26
$GPGGA,133014.94,4545.5835,N,00306.9829,E,1,05,02.1,00410.8,M,0047.4,M,,*5D
$GPGSA,A,3,23,13,04,20,11,,,,,,,,03.3,02.1,02.6*00
$GPGSV,3,1,09,23,76,068,45,13,68,212,45,04,52,297,42,20,49,084,36*7E
$GPGSV,3,2,09,11,10,155,30,02,10,314,17,25,08,033,,10,06,276,*7A
$GPGSV,3,3,09,00,00,000,*40
$GPRMC,133015.94,A,4545.5802,N,00306.9824,E,011.8,191.9,010310,000.1,W,A*28
$GPGGA,133015.94,4545.5802,N,00306.9824,E,1,05,02.1,00412.3,M,0047.4,M,,*5C
$GPGSA,A,3,23,13,04,20,11,,,,,,,,03.3,02.1,02.6*00
$GPGSV,3,1,09,23,76,068,45,13,68,212,46,04,52,297,43,20,49,084,37*7D
$GPGSV,3,2,09,11,10,155,32,02,10,314,18,25,08,033,,10,06,276,*77
$GPGSV,3,3,09,00,00,000,*40
$GPRMC,133016.94,A,4545.5775,N,00306.9819,E,011.9,189.3,010310,000.1,W,A*28
$GPGGA,133016.94,4545.5775,N,00306.9819,E,1,05,02.1,00412.0,M,0047.4,M,,*5D
$GPGSA,A,3,23,13,04,20,11,,,,,,,,03.3,02.1,02.6*00
$GPGSV,3,1,09,23,76,068,45,13,68,212,46,04,52,297,43,20,49,084,38*72
$GPGSV,3,2,09,11,10,155,33,02,10,314,20,25,07,032,,10,06,276,*73
$GPGSV,3,3,09,00,00,000,*40
$GPRMC,133017.94,A,4545.5743,N,00306.9810,E,012.5,190.8,010310,000.1,W,A*29
$GPGGA,133017.94,4545.5743,N,00306.9810,E,1,04,02.9,00411.8,M,0047.4,M,,*52
$GPGSA,A,3,23,13,04,20,,,,,,,,,07.1,02.9,06.5*09
$GPGSV,3,1,09,23,76,068,45,13,68,212,46,04,52,297,44,20,49,084,37*7A
$GPGSV,3,2,09,11,10,155,31,02,10,314,18,25,07,032,,10,06,276,*7A
$GPGSV,3,3,09,00,00,000,*40
$GPRMC,133018.94,A,4545.5709,N,00306.9797,E,012.5,191.8,010310,000.1,W,A*29
$GPGGA,133018.94,4545.5709,N,00306.9797,E,1,04,02.9,00412.0,M,0047.4,M,,*58
$GPGSA,A,3,23,13,04,20,11,,,,,,,,07.1,02.9,06.5*09
$GPGSV,3,1,09,23,76,068,44,13,68,212,46,04,52,297,44,20,49,084,36*7A
$GPGSV,3,2,09,11,10,155,28,02,10,314,17,25,07,032,,10,06,276,*7D
$GPGSV,3,3,09,00,00,000,*40
$GPRMC,133019.94,A,4545.5678,N,00306.9774,E,011.8,201.3,010310,000.1,W,A*2D
$GPGGA,133019.94,4545.5678,N,00306.9774,E,1,04,02.9,00409.4,M,0047.4,M,,*5D
$GPGSA,A,3,23,13,04,20,,,,,,,,,07.1,02.9,06.5*09
$GPGSV,3,1,09,23,76,068,44,13,68,212,45,04,52,297,43,20,49,084,35*7D
$GPGSV,3,2,09,11,10,155,27,02,10,314,,25,07,032,,10,06,276,*74
$GPGSV,3,3,09,00,00,000,*40
$GPRMC,133020.94,A,4545.5672,N,00306.9726,E,012.2,214.9,010310,000.1,W,A*2D
$GPGGA,133020.94,4545.5672,N,00306.9726,E,1,04,08.0,00406.2,M,0047.4,M,,*50
$GPGSA,A,3,23,13,04,20,,,,,,,,,10.3,08.0,06.5*0E
$GPGSV,3,1,09,23,76,068,43,13,68,212,44,04,52,297,42,20,49,084,33*7C
$GPGSV,3,2,09,11,10,155,21,02,10,314,,25,07,032,,10,06,276,*72
$GPGSV,3,3,09,00,00,000,*40
$GPRMC,133021.94,A,4545.5658,N,00306.9678,E,012.3,224.1,010310,000.1,W,A*24
$GPGGA,133021.94,4545.5658,N,00306.9678,E,1,04,02.9,00404.9,M,0047.4,M,,*59
$GPGSA,A,3,23,13,04,20,,,,,,,,,07.1,02.9,06.5*09
$GPGSV,3,1,09,23,76,068,45,13,68,212,42,04,52,297,39,20,49,084,37*74
$GPGSV,3,2,09,11,10,155,24,02,10,314,,25,07,032,,10,06,276,*77
$GPGSV,3,3,09,00,00,000,*40
$GPRMC,133022.94,A,4545.5650,N,00306.9626,E,012.6,235.0,010310,000.1,W,A*20
$GPGGA,133022.94,4545.5650,N,00306.9626,E,1,05,02.1,00407.5,M,0047.4,M,,*5F
$GPGSA,A,3,23,13,04,20,11,,,,,,,,03.3,02.1,02.6*00
$GPGSV,3,1,09,23,76,068,46,13,68,212,41,04,52,297,38,20,49,084,39*7B
$GPGSV,3,2,09,11,10,155,28,02,10,314,,25,07,032,,10,06,276,*7B
$GPGSV,3,3,09,00,00,000,*40
$GPRMC,133023.94,A,4545.5636,N,00306.9579,E,012.7,240.5,010310,000.1,W,A*2E
$GPGGA,133023.94,4545.5636,N,00306.9579,E,1,05,02.1,00407.8,M,0047.4,M,,*5A
$GPGSA,A,3,23,13,04,20,11,,,,,,,,03.3,02.1,02.6*00
$GPGSV,3,1,09,23,76,068,47,13,68,212,40,04,52,297,37,20,49,084,40*7A
$GPGSV,3,2,09,11,10,155,31,02,10,314,,25,07,032,,10,06,276,*73
$GPGSV,3,3,09,00,00,000,*40
$GPRMC,133024.94,A,4545.5620,N,00306.9534,E,012.8,243.3,010310,000.1,W,A*2D
$GPGGA,133024.94,4545.5620,N,00306.9534,E,1,05,06.7,00407.8,M,0047.4,M,,*51
$GPGSA,A,3,23,13,04,20,11,,,,,,,,07.2,06.7,02.6*07
$GPGSV,3,1,09,23,76,068,47,13,68,212,38,04,52,297,36,20,49,084,40*74
$GPGSV,3,2,09,11,10,155,31,02,10,314,,25,07,032,,10,06,276,*73
$GPGSV,3,3,09,00,00,000,*40
$GPRMC,133025.94,A,4545.5608,N,00306.9486,E,012.7,244.9,010310,000.1,W,A*2C
$GPGGA,133025.94,4545.5608,N,00306.9486,E,1,04,02.9,00407.1,M,0047.4,M,,*50
$GPGSA,A,3,23,13,04,20,,,,,,,,,07.1,02.9,06.5*09
$GPGSV,3,1,09,23,76,068,48,13,68,212,38,04,52,297,36,20,49,084,40*7B
$GPGSV,3,2,09,11,10,155,31,02,10,314,30,25,07,032,,10,06,276,*70
$GPGSV,3,3,09,00,00,000,*40
$GPRMC,133026.94,A,4545.5594,N,00306.9440,E,012.6,245.8,010310,000.1,W,A*22
$GPGGA,133026.94,4545.5594,N,00306.9440,E,1,04,02.9,00407.3,M,0047.4,M,,*5D
$GPGSA,A,3,23,13,04,20,11,,,,,,,,07.1,02.9,06.5*09
$GPGSV,3,1,09,23,76,068,48,13,68,212,37,04,52,297,34,20,49,084,39*78
$GPGSV,3,2,09,11,10,155,30,02,10,314,27,25,07,032,,10,06,276,*77
$GPGSV,3,3,09,00,00,000,*40
$GPRMC,133027.94,A,4545.5580,N,00306.9393,E,011.9,245.6,010310,000.1,W,A*2D
$GPGGA,133027.94,4545.5580,N,00306.9393,E,1,04,02.9,00406.7,M,0047.4,M,,*55
$GPGSA,A,3,23,13,04,20,,,,,,,,,07.1,02.9,06.5*09
$GPGSV,3,1,09,23,76,068,48,13,68,212,37,04,52,297,34,20,49,084,40*76
$GPGSV,3,2,09,11,10,155,29,02,10,314,27,25,07,032,,10,06,276,*7F
$GPGSV,3,3,09,00,00,000,*40
$GPRMC,133028.94,A,4545.5570,N,00306.9347,E,012.0,245.7,010310,000.1,W,A*2F
$GPGGA,133028.94,4545.5570,N,00306.9347,E,1,04,02.9,00407.6,M,0047.4,M,,*5C
$GPGSA,A,3,23,13,04,20,,,,,,,,,07.1,02.9,06.5*09
$GPGSV,3,1,09,23,76,068,48,13,68,212,37,04,52,297,35,20,49,084,41*76
$GPGSV,3,2,09,11,10,155,27,02,10,314,26,25,07,032,,10,06,276,*70
$GPGSV,3,3,09,00,00,000,*40
$GPRMC,133029.94,A,4545.5555,N,00306.9301,E,012.8,246.2,010310,000.1,W,A*25
$GPGGA,133029.94,4545.5555,N,00306.9301,E,1,04,02.9,00406.5,M,0047.4,M,,*5A
$GPGSA,A,3,23,13,04,20,,,,,,,,,07.1,02.9,06.5*09
$GPGSV,3,1,09,23,76,068,48,13,68,212,37,04,52,297,36,20,49,084,41*75
$GPGSV,3,2,09,11,10,155,24,02,10,314,25,25,07,032,,10,06,276,*70
$GPGSV,3,3,09,00,00,000,*40
$GPRMC,133030.94,A,4545.5547,N,00306.9248,E,014.1,246.5,010310,000.1,W,A*2A
$GPGGA,133030.94,4545.5547,N,00306.9248,E,1,04,02.9,00408.2,M,0047.4,M,,*54
$GPGSA,A,3,23,13,04,20,,,,,,,,,07.1,02.9,06.4*08
$GPGSV,3,1,09,23,76,068,48,13,68,212,37,04,52,297,37,20,49,084,41*74
$GPGSV,3,2,09,11,10,155,21,02,10,314,24,25,07,032,,10,06,276,*74
$GPGSV,3,3,09,00,00,000,*40
$GPRMC,133031.94,A,4545.5526,N,00306.9194,E,015.6,246.8,010310,000.1,W,A*25
$GPGGA,133031.94,4545.5526,N,00306.9194,E,1,04,02.9,00406.6,M,0047.4,M,,*5A
$GPGSA,A,3,23,13,04,20,,,,,,,,,07.1,02.9,06.4*08
$GPGSV,3,1,09,23,76,068,48,13,68,212,37,04,52,297,38,20,49,084,41*7B
$GPGSV,3,2,09,11,10,155,21,02,10,314,23,25,07,032,,10,06,276,*73
$GPGSV,3,3,09,00,00,000,*40
$GPRMC,133032.94,A,4545.5508,N,00306.9136,E,016.4,247.0,010310,000.1,W,A*2A
$GPGGA,133032.94,4545.5508,N,00306.9136,E,1,04,02.9,00409.9,M,0047.4,M,,*5D
$GPGSA,A,3,23,13,04,20,,,,,,,,,07.1,02.9,06.4*08
$GPGSV,3,1,09,23,76,068,48,13,68,212,37,04,52,297,38,20,49,084,41*7B
$GPGSV,3,2,09,11,10,155,21,02,10,314,23,25,07,032,,10,06,276,*73
$GPGSV,3,3,09,00,00,000,*40
$GPRMC,133033.94,A,4545.5492,N,00306.9072,E,016.4,247.2,010310,000.1,W,A*2A
$GPGGA,133033.94,4545.5492,N,00306.9072,E,1,04,02.9,00409.2,M,0047.4,M,,*54
$GPGSA,A,3,23,13,04,20,,,,,,,,,07.1,02.9,06.4*08
$GPGSV,3,1,09,23,76,068,48,13,68,212,37,04,52,297,38,20,49,084,41*7B
$GPGSV,3,2,09,11,10,155,22,02,10,314,23,25,07,032,,10,06,276,*70
$GPGSV,3,3,09,00,00,000,*40
$GPRMC,133034.94,A,4545.5476,N,00306.9008,E,016.3,247.2,010310,000.1,W,A*2D
$GPGGA,133034.94,4545.5476,N,00306.9008,E,1,04,02.9,00406.5,M,0047.4,M,,*5C
$GPGSA,A,3,23,13,04,20,,,,,,,,,07.1,02.9,06.4*08
$GPGSV,3,1,09,23,76,068,48,13,68,212,37,04,52,297,38,20,49,084,41*7B
$GPGSV,3,2,09,11,10,155,23,02,10,314,22,25,07,032,,10,06,276,*70
$GPGSV,3,3,09,00,00,000,*40
$GPRMC,133035.94,A,4545.5460,N,00306.8949,E,016.3,247.1,010310,000.1,W,A*25
$GPGGA,133035.94,4545.5460,N,00306.8949,E,1,04,02.9,00406.9,M,0047.4,M,,*5B
$GPGSA,A,3,23,13,04,20,,,,,,,,,07.1,02.9,06.4*08
$GPGSV,3,1,09,23,76,068,48,13,68,212,37,04,52,297,37,20,49,084,42*77
$GPGSV,3,2,09,11,10,155,23,02,10,314,20,25,07,032,,10,06,276,*72
$GPGSV,3,3,09,00,00,000,*40
$GPRMC,133036.94,A,4545.5446,N,00306.8891,E,016.4,246.9,010310,000.1,W,A*28
$GPGGA,133036.94,4545.5446,N,00306.8891,E,1,04,02.9,00407.1,M,0047.4,M,,*51
$GPGSA,A,3,23,13,04,20,,,,,,,,,07.1,02.9,06.4*08
$GPGSV,3,1,09,23,76,068,48,13,68,212,37,04,52,297,38,20,49,084,42*78
$GPGSV,3,2,09,11,10,155,22,02,10,314,21,25,07,032,,10,06,276,*72
$GPGSV,3,3,09,00,00,000,*40
$GPRMC,133037.94,A,4545.5429,N,00306.8832,E,016.7,246.7,010310,000.1,W,A*24
$GPGGA,133037.94,4545.5429,N,00306.8832,E,1,04,02.9,00405.9,M,0047.4,M,,*5A
$GPGSA,A,3,23,13,04,20,,,,,,,,,07.1,02.9,06.4*08
$GPGSV,3,1,09,23,76,068,47,13,68,212,37,04,52,297,38,20,49,084,42*77
$GPGSV,3,2,09,11,10,155,24,02,10,314,21,25,07,032,,10,06,276,*74
$GPGSV,3,3,09,00,00,000,*40
$GPRMC,133038.94,A,4545.5411,N,00306.8770,E,017.8,246.6,010310,000.1,W,A*26
$GPGGA,133038.94,4545.5411,N,00306.8770,E,1,04,02.9,00404.7,M,0047.4,M,,*58
$GPGSA,A,3,23,13,04,20,,,,,,,,,07.1,02.9,06.4*08
$GPGSV,3,1,09,23,76,068,47,13,68,212,37,04,52,297,38,20,49,084,42*77
$GPGSV,3,2,09,11,10,155,23,02,10,314,22,25,07,032,,10,06,276,*70
$GPGSV,3,3,09,00,00,000,*40
$GPRMC,133039.94,A,4545.5390,N,00306.8704,E,018.0,246.6,010310,000.1,W,A*2D
$GPGGA,133039.94,4545.5390,N,00306.8704,E,1,04,02.9,00404.0,M,0047.4,M,,*53
$GPGSA,A,3,23,13,04,20,,,,,,,,,07.1,02.9,06.4*08
$GPGSV,3,1,09,23,76,068,47,13,68,212,37,04,52,297,38,20,49,084,42*77
$GPGSV,3,2,09,11,10,155,24,02,10,314,24,25,07,032,,10,06,276,*71
$GPGSV,3,3,09,00,00,000,*40
$GPRMC,133040.94,A,4545.5372,N,00306.8634,E,018.1,245.0,010310,000.1,W,A*29
$GPGGA,133040.94,4545.5372,N,00306.8634,E,1,05,02.1,00403.7,M,0047.4,M,,*5A
$GPGSA,A,3,23,13,04,20,11,,,,,,,,03.3,02.1,02.6*00
$GPGSV,3,1,09,23,76,068,47,13,68,212,37,04,52,297,39,20,49,084,42*76
$GPGSV,3,2,09,11,10,155,27,02,10,314,23,25,07,032,,10,06,276,*75
$GPGSV,3,3,09,00,00,000,*40
$GPRMC,133041.94,A,4545.5350,N,00306.8564,E,018.8,245.6,010310,000.1,W,A*21
$GPGGA,133041.94,4545.5350,N,00306.8564,E,1,05,02.1,00403.3,M,0047.4,M,,*59
$GPGSA,A,3,23,13,04,20,11,,,,,,,,03.3,02.1,02.6*00
$GPGSV,3,1,09,23,76,068,47,13,68,212,37,04,52,297,39,20,49,084,42*76
$GPGSV,3,2,09,11,10,155,31,02,10,314,22,25,07,032,,10,06,276,*73
$GPGSV,3,3,09,00,00,000,*40
$GPRMC,133042.94,A,4545.5328,N,00306.8491,E,018.8,245.8,010310,000.1,W,A*28
$GPGGA,133042.94,4545.5328,N,00306.8491,E,1,05,02.1,00403.4,M,0047.4,M,,*59
$GPGSA,A,3,23,13,04,20,11,,,,,,,,03.3,02.1,02.6*00
$GPGSV,3,1,09,23,76,068,47,13,68,212,37,04,52,297,39,20,49,084,42*76
$GPGSV,3,2,09,11,10,155,33,02,10,314,20,25,07,032,,10,06,276,*73
$GPGSV,3,3,09,00,00,000,*40
$GPRMC,133043.94,A,4545.5309,N,00306.8421,E,018.9,245.9,010310,000.1,W,A*21
$GPGGA,133043.94,4545.5309,N,00306.8421,E,1,05,02.1,00403.9,M,0047.4,M,,*5D
$GPGSA,A,3,23,13,04,20,11,,,,,,,,03.3,02.1,02.6*00
$GPGSV,3,1,09,23,76,068,47,13,68,212,37,04,52,297,39,20,49,084,42*76
$GPGSV,3,2,09,11,10,155,34,02,10,314,19,25,07,032,,10,06,276,*7E
$GPGSV,3,3,09,00,00,000,*40
$GPRMC,133044.94,A,4545.5285,N,00306.8352,E,019.0,245.7,010310,000.1,W,A*26
$GPGGA,133044.94,4545.5285,N,00306.8352,E,1,04,02.9,00402.5,M,0047.4,M,,*58
$GPGSA,A,3,23,13,04,20,,,,,,,,,07.1,02.9,06.4*08
$GPGSV,3,1,09,23,76,068,47,13,68,212,36,04,52,297,39,20,49,084,42*77
$GPGSV,3,2,09,11,10,155,32,02,10,314,20,25,07,032,,10,06,276,*72
$GPGSV,3,3,09,00,00,000,*40
$GPRMC,133045.94,A,4545.5263,N,00306.8283,E,019.0,245.6,010310,000.1,W,A*23
$GPGGA,133045.94,4545.5263,N,00306.8283,E,1,04,02.9,00402.8,M,0047.4,M,,*51
$GPGSA,A,3,23,13,04,20,,,,,,,,,07.1,02.9,06.4*08
$GPGSV,3,1,09,23,76,068,47,13,68,212,36,04,52,297,39,20,49,084,42*77
$GPGSV,3,2,09,11,10,155,29,02,10,314,21,25,07,032,,10,06,276,*79
$GPGSV,3,3,09,00,00,000,*40
$GPRMC,133046.94,A,4545.5241,N,00306.8211,E,019.0,245.4,010310,000.1,W,A*29
$GPGGA,133046.94,4545.5241,N,00306.8211,E,1,04,02.9,00403.5,M,0047.4,M,,*55
$GPGSA,A,3,23,13,04,20,,,,,,,,,07.1,02.9,06.4*08
$GPGSV,3,1,09,23,76,068,47,13,68,212,36,04,52,297,39,20,49,084,42*77
$GPGSV,3,2,09,11,10,155,26,02,10,314,22,25,07,032,,10,06,276,*75
$GPGSV,3,3,09,00,00,000,*40
$GPRMC,133047.94,A,4545.5219,N,00306.8143,E,018.9,245.3,010310,000.1,W,A*2E
$GPGGA,133047.94,4545.5219,N,00306.8143,E,1,04,02.9,00403.7,M,0047.4,M,,*5F
$GPGSA,A,3,23,13,04,20,,,,,,,,,07.1,02.9,06.4*08
$GPGSV,3,1,09,23,76,068,47,13,68,212,35,04,52,297,38,20,49,084,41*76
$GPGSV,3,2,09,11,10,155,24,02,10,314,22,25,07,032,,10,06,276,*77
$GPGSV,3,3,09,00,00,000,*40
$GPRMC,133048.94,A,4545.5200,N,00306.8076,E,017.9,244.7,010310,000.1,W,A*24
$GPGGA,133048.94,4545.5200,N,00306.8076,E,1,05,02.9,00407.7,M,0047.4,M,,*5A
$GPGSA,A,3,23,13,04,20,,02,,,,,,,04.3,02.9,03.1*0B
$GPGSV,3,1,09,23,76,068,46,13,68,212,35,04,52,297,37,20,49,084,40*79
$GPGSV,3,2,09,11,10,155,21,02,10,314,26,25,07,032,,10,06,276,*76
$GPGSV,3,3,09,00,00,000,*40
$GPRMC,133049.94,A,4545.5178,N,00306.8012,E,018.1,244.6,010310,000.1,W,A*2D
$GPGGA,133049.94,4545.5178,N,00306.8012,E,1,04,03.0,00407.7,M,0047.4,M,,*5C
$GPGSA,A,3,23,13,04,20,,,,,,,,,07.1,03.0,06.4*00
$GPGSV,3,1,09,23,76,067,46,13,68,212,36,04,52,297,37,20,49,084,40*75
$GPGSV,3,2,09,11,10,155,20,02,10,314,27,25,07,032,,10,06,276,*76
$GPGSV,3,3,09,00,00,000,*40
$GPRMC,133050.94,A,4545.5157,N,00306.7947,E,017.9,244.5,010310,000.1,W,A*2A
$GPGGA,133050.94,4545.5157,N,00306.7947,E,1,04,03.0,00408.4,M,0047.4,M,,*53
$GPGSA,A,3,23,13,04,20,,,,,,,,,07.1,03.0,06.4*00
$GPGSV,3,1,09,23,76,067,46,13,68,212,36,04,52,297,38,20,49,084,41*7B
$GPGSV,3,2,09,11,10,155,23,02,10,314,26,25,07,032,,10,06,276,*74
$GPGSV,3,3,09,00,00,000,*40
$GPRMC,133051.94,A,4545.5135,N,00306.7886,E,017.5,244.5,010310,000.1,W,A*2F
$GPGGA,133051.94,4545.5135,N,00306.7886,E,1,04,03.0,00407.0,M,0047.4,M,,*51
$GPGSA,A,3,23,13,04,20,,,,,,,,,07.1,03.0,06.4*00
$GPGSV,3,1,09,23,76,067,47,13,68,212,37,04,52,297,39,20,49,084,41*7A
$GPGSV,3,2,09,11,10,155,24,02,10,314,24,25,07,032,,10,06,276,*71
$GPGSV,3,3,09,00,00,000,*40
$GPRMC,133052.94,A,4545.5119,N,00306.7827,E,016.5,244.8,010310,000.1,W,A*25
$GPGGA,133052.94,4545.5119,N,00306.7827,E,1,04,03.0,00408.7,M,0047.4,M,,*5F
$GPGSA,A,3,23,13,04,20,,,,,,,,,07.1,03.0,06.4*00
$GPGSV,3,1,09,23,76,067,47,13,68,212,37,04,52,297,39,20,49,084,41*7A
$GPGSV,3,2,09,11,10,155,26,02,10,314,23,25,07,032,,10,06,276,*74
$GPGSV,3,3,09,00,00,000,*40
$GPRMC,133053.94,A,4545.5102,N,00306.7769,E,016.3,244.6,010310,000.1,W,A*23
$GPGGA,133053.94,4545.5102,N,00306.7769,E,1,05,02.1,00408.8,M,0047.4,M,,*5F
$GPGSA,A,3,23,13,04,20,11,,,,,,,,03.3,02.1,02.6*00
$GPGSV,3,1,09,23,76,067,47,13,68,212,38,04,52,297,39,20,49,084,41*75
$GPGSV,3,2,09,11,10,155,29,02,10,314,24,25,07,032,,10,06,276,*7C
$GPGSV,3,3,09,00,00,000,*40
$GPRMC,133054.94,A,4545.5083,N,00306.7714,E,016.3,244.5,010310,000.1,W,A*25
$GPGGA,133054.94,4545.5083,N,00306.7714,E,1,04,03.0,00407.1,M,0047.4,M,,*5D
$GPGSA,A,3,23,13,04,20,,,,,,,,,07.1,03.0,06.4*00
$GPGSV,3,1,09,23,76,067,47,13,68,212,38,04,52,297,39,20,49,084,40*74
$GPGSV,3,2,09,11,10,155,29,02,10,314,26,25,07,032,,10,06,276,*7E
$GPGSV,3,3,09,00,00,000,*40
$GPRMC,133055.94,A,4545.5063,N,00306.7655,E,016.4,244.4,010310,000.1,W,A*28
$GPGGA,133055.94,4545.5063,N,00306.7655,E,1,05,02.9,00410.9,M,0047.4,M,,*51
$GPGSA,A,3,23,13,04,20,,02,,,,,,,04.3,02.9,03.1*0B
$GPGSV,3,1,09,23,76,067,47,13,68,212,39,04,52,297,39,20,49,084,40*75
$GPGSV,3,2,09,11,10,155,28,02,10,314,30,25,07,032,,10,06,276,*78
$GPGSV,3,3,09,00,00,000,*40
$GPRMC,133056.94,A,4545.5042,N,00306.7599,E,016.5,244.4,010310,000.1,W,A*2A
$GPGGA,133056.94,4545.5042,N,00306.7599,E,1,05,02.9,00413.8,M,0047.4,M,,*50
$GPGSA,A,3,23,13,04,20,,02,,,,,,,04.3,02.9,03.1*0B
$GPGSV,3,1,09,23,76,067,47,13,68,212,39,04,52,297,39,20,49,084,40*75
$GPGSV,3,2,09,11,10,155,26,02,10,314,32,25,07,032,,10,06,276,*74
$GPGSV,3,3,09,00,00,000,*40
$GPRMC,133057.94,A,4545.5022,N,00306.7542,E,016.5,244.6,010310,000.1,W,A*29
$GPGGA,133057.94,4545.5022,N,00306.7542,E,1,05,02.9,00415.1,M,0047.4,M,,*5E
$GPGSA,A,3,23,13,04,20,,02,,,,,,,04.3,02.9,03.1*0B
$GPGSV,3,1,09,23,76,067,47,13,68,212,39,04,52,297,39,20,49,084,40*75
$GPGSV,3,2,09,11,10,155,24,02,10,314,33,25,07,032,,10,06,276,*77
$GPGSV,3,3,09,00,00,000,*40
$GPRMC,133058.94,A,4545.5003,N,00306.7481,E,016.8,244.7,010310,000.1,W,A*27
$GPGGA,133058.94,4545.5003,N,00306.7481,E,1,05,02.9,00415.7,M,0047.4,M,,*5A
$GPGSA,A,3,23,13,04,20,,02,,,,,,,04.3,02.9,03.1*0B
$GPGSV,3,1,09,23,76,067,48,13,68,212,39,04,52,297,39,20,49,084,40*7A
$GPGSV,3,2,09,11,10,155,23,02,10,314,35,25,07,032,,10,06,276,*76
$GPGSV,3,3,09,00,00,000,*40
$GPRMC,133059.94,A,4545.4984,N,00306.7426,E,015.7,244.4,010310,000.1,W,A*23
$GPGGA,133059.94,4545.4984,N,00306.7426,E,1,05,02.9,00415.5,M,0047.4,M,,*53
$GPGSA,A,3,23,13,04,20,,02,,,,,,,04.3,02.9,03.1*0B
$GPGSV,3,1,09,23,76,067,48,13,68,212,39,04,52,297,39,20,49,084,40*7A
$GPGSV,3,2,09,11,10,155,22,02,10,314,36,25,07,032,,10,06,276,*74
$GPGSV,3,3,09,00,00,000,*40
$GPRMC,133100.94,A,4545.4965,N,00306.7372,E,014.6,244.4,010310,000.1,W,A*27
$GPGGA,133100.94,4545.4965,N,00306.7372,E,1,05,02.9,00415.7,M,0047.4,M,,*55
$GPGSA,A,3,23,13,04,20,,02,,,,,,,04.3,02.9,03.1*0B
$GPGSV,3,1,09,23,76,067,48,13,68,212,39,04,52,297,39,20,49,084,40*7A
$GPGSV,3,2,09,11,10,155,22,02,10,314,37,25,07,032,,10,06,276,*75
$GPGSV,3,3,09,00,00,000,*40
$GPRMC,133101.94,A,4545.4952,N,00306.7327,E,012.6,244.9,010310,000.1,W,A*29
$GPGGA,133101.94,4545.4952,N,00306.7327,E,1,05,02.9,00417.3,M,0047.4,M,,*56
$GPGSA,A,3,23,13,04,20,,02,,,,,,,04.3,02.9,03.1*0B
$GPGSV,3,1,09,23,76,067,48,13,68,212,39,04,52,297,39,20,49,084,40*7A
$GPGSV,3,2,09,11,10,155,22,02,10,314,37,25,07,032,,10,06,276,*75
$GPGSV,3,3,09,00,00,000,*40
$GPRMC,133102.94,A,4545.4942,N,00306.7288,E,010.9,249.2,010310,000.1,W,A*24
$GPGGA,133102.94,4545.4942,N,00306.7288,E,1,05,02.9,00422.3,M,0047.4,M,,*56
$GPGSA,A,3,23,13,04,20,,02,,,,,,,04.3,02.9,03.1*0B
$GPGSV,3,1,09,23,76,067,48,13,68,212,39,04,52,297,40,20,49,084,39*7A
$GPGSV,3,2,09,11,10,155,22,02,10,314,36,25,07,032,,10,06,276,*74
$GPGSV,3,3,09,00,00,000,*40
$GPRMC,133103.94,A,4545.4936,N,00306.7245,E,010.3,253.4,010310,000.1,W,A*20
$GPGGA,133103.94,4545.4936,N,00306.7245,E,1,04,03.0,00422.5,M,0047.4,M,,*5A
$GPGSA,A,3,23,13,04,20,,,,,,,,,07.1,03.0,06.4*00
$GPGSV,3,1,09,23,76,067,48,13,68,212,39,04,52,297,40,20,49,084,40*74
$GPGSV,3,2,09,11,10,155,20,02,10,314,33,25,07,032,,10,06,276,*73
$GPGSV,3,3,09,00,00,000,*40
$GPRMC,133104.94,A,4545.4933,N,00306.7206,E,010.0,256.4,010310,000.1,W,A*23
$GPGGA,133104.94,4545.4933,N,00306.7206,E,1,04,03.0,00421.5,M,0047.4,M,,*5C
$GPGSA,A,3,23,13,04,20,,,,,,,,,07.1,03.0,06.4*00
$GPGSV,3,1,09,23,76,067,49,13,68,212,39,04,52,297,40,20,49,084,41*74
$GPGSV,3,2,09,11,10,155,19,02,10,314,31,25,07,032,,10,06,276,*7B
$GPGSV,3,3,09,00,00,000,*40
$GPRMC,133105.94,A,4545.4928,N,00306.7168,E,009.2,255.4,010310,000.1,W,A*2A
$GPGGA,133105.94,4545.4928,N,00306.7168,E,1,04,03.0,00420.5,M,0047.4,M,,*5D
$GPGSA,A,3,23,13,04,20,,,,,,,,,07.1,03.0,06.4*00
$GPGSV,3,1,09,23,76,067,49,13,68,212,39,04,52,297,40,20,49,084,41*74
$GPGSV,3,2,09,11,10,155,20,02,10,314,31,25,07,032,,10,06,276,*71
$GPGSV,3,3,09,00,00,000,*40
$GPRMC,133106.94,A,4545.4918,N,00306.7141,E,008.8,247.6,010310,000.1,W,A*2B
$GPGGA,133106.94,4545.4918,N,00306.7141,E,1,05,02.9,00419.5,M,0047.4,M,,*55
$GPGSA,A,3,23,13,04,20,,02,,,,,,,04.3,02.9,03.1*0B
$GPGSV,3,1,09,23,76,067,49,13,68,212,39,04,52,297,39,20,49,084,41*7A
$GPGSV,3,2,09,11,10,155,23,02,10,314,35,25,07,032,,10,06,276,*76
$GPGSV,3,3,09,00,00,000,*40
$GPRMC,133107.94,A,4545.4902,N,00306.7113,E,008.9,233.0,010310,000.1,W,A*22
$GPGGA,133107.94,4545.4902,N,00306.7113,E,1,05,02.9,00418.9,M,0047.4,M,,*55
$GPGSA,A,3,23,13,04,20,,02,,,,,,,04.3,02.9,03.1*0B
$GPGSV,3,1,09,23,76,067,49,13,68,212,40,04,52,297,40,20,49,084,40*7B
$GPGSV,3,2,09,11,10,155,23,02,10,314,37,25,07,032,,10,06,276,*74
$GPGSV,3,3,09,00,00,000,*40
$GPRMC,133108.94,A,4545.4878,N,00306.7096,E,009.2,221.4,010310,000.1,W,A*20
$GPGGA,133108.94,4545.4878,N,00306.7096,E,1,05,02.9,00417.3,M,0047.4,M,,*5F
$GPGSA,A,3,23,13,04,20,,02,,,,,,,04.3,02.9,03.1*0B
$GPGSV,3,1,09,23,76,067,48,13,68,212,41,04,52,297,42,20,49,084,39*77
$GPGSV,3,2,09,11,10,155,22,02,10,314,38,25,07,032,,10,06,276,*7A
$GPGSV,3,3,09,00,00,000,*40
$GPRMC,133109.94,A,4545.4856,N,00306.7071,E,010.2,222.2,010310,000.1,W,A*29
$GPGGA,133109.94,4545.4856,N,00306.7071,E,1,04,03.0,00415.0,M,0047.4,M,,*53
$GPGSA,A,3,23,13,04,20,,,,,,,,,07.1,03.0,06.4*00
$GPGSV,3,1,09,23,76,067,48,13,68,212,41,04,52,297,44,20,49,084,38*70
$GPGSV,3,2,09,11,10,155,22,02,10,314,37,25,07,032,,10,06,276,*75
$GPGSV,3,3,09,00,00,000,*40
$GPRMC,133110.94,A,4545.4835,N,00306.7033,E,012.2,225.5,010310,000.1,W,A*20
$GPGGA,133110.94,4545.4835,N,00306.7033,E,1,04,03.0,00414.6,M,0047.4,M,,*5F
$GPGSA,A,3,23,13,04,20,,,,,,,,,07.1,03.0,06.4*00
$GPGSV,3,1,09,23,76,067,48,13,68,212,41,04,52,297,43,20,49,084,38*77
$GPGSV,3,2,09,11,10,155,20,02,10,314,35,25,07,032,,10,06,276,*75
$GPGSV,3,3,09,00,00,000,*40
$GPRMC,133111.94,A,4545.4810,N,00306.6989,E,013.5,228.5,010310,000.1,W,A*24
$GPGGA,133111.94,4545.4810,N,00306.6989,E,1,04,03.0,00413.2,M,0047.4,M,,*53
$GPGSA,A,3,23,13,04,20,,,,,,,,,07.1,03.0,06.4*00
$GPGSV,3,1,09,23,76,067,48,13,68,212,40,04,52,297,42,20,49,084,39*76
$GPGSV,3,2,09,11,10,155,19,02,10,314,33,25,07,032,,10,06,276,*79
$GPGSV,3,3,09,00,00,000,*40
$GPRMC,133112.94,A,4545.4788,N,00306.6942,E,014.6,230.6,010310,000.1,W,A*20
$GPGGA,133112.94,4545.4788,N,00306.6942,E,1,04,03.0,00410.5,M,0047.4,M,,*5D
$GPGSA,A,3,23,13,04,20,,,,,,,,,07.1,03.0,06.4*00
$GPGSV,3,1,09,23,76,067,48,13,68,212,40,04,52,297,42,20,49,084,39*76
$GPGSV,3,2,09,11,10,155,17,02,10,314,29,25,07,032,,10,06,276,*7C
$GPGSV,3,3,09,00,00,000,*40
$GPRMC,133113.94,A,4545.4760,N,00306.6889,E,015.7,231.5,010310,000.1,W,A*23
$GPGGA,133113.94,4545.4760,N,00306.6889,E,1,04,03.0,00407.2,M,0047.4,M,,*5D
$GPGSA,A,3,23,13,04,20,,,,,,,,,07.1,03.0,06.4*00
$GPGSV,3,1,09,23,76,067,48,13,68,212,40,04,52,297,41,20,49,084,39*75
$GPGSV,3,2,09,11,10,155,16,02,10,314,26,25,07,032,,10,06,277,*73
$GPGSV,3,3,09,00,00,000,*40
$GPRMC,133114.94,A,4545.4732,N,00306.6839,E,016.1,232.0,010310,000.1,W,A*2B
$GPGGA,133114.94,4545.4732,N,00306.6839,E,1,04,03.0,00404.5,M,0047.4,M,,*52
$GPGSA,A,3,23,13,04,20,,,,,,,,,07.1,03.0,06.4*00
$GPGSV,3,1,09,23,76,067,48,13,68,212,40,04,52,297,40,20,49,084,39*74
$GPGSV,3,2,09,11,10,155,19,02,10,314,24,25,07,032,,10,06,277,*7E
$GPGSV,3,3,09,00,00,000,*40
$GPRMC,133115.94,A,4545.4703,N,00306.6789,E,016.2,232.2,010310,000.1,W,A*2D
$GPGGA,133115.94,4545.4703,N,00306.6789,E,1,04,03.0,00401.7,M,0047.4,M,,*52
$GPGSA,A,3,23,13,04,20,,,,,,,,,07.1,03.0,06.4*00
$GPGSV,3,1,09,23,76,067,48,13,68,212,40,04,52,297,40,20,49,084,39*74
$GPGSV,3,2,09,11,10,155,20,02,10,314,21,25,07,032,,10,06,277,*71
$GPGSV,3,3,09,00,00,000,*40
$GPRMC,133116.94,A,4545.4679,N,00306.6735,E,016.0,232.0,010310,000.1,W,A*25
$GPGGA,133116.94,4545.4679,N,00306.6735,E,1,04,03.0,00402.3,M,0047.4,M,,*5D
$GPGSA,A,3,23,13,04,20,,,,,,,,,07.1,03.0,06.4*00
$GPGSV,3,1,09,23,76,067,48,13,68,212,40,04,52,297,41,20,49,084,38*74
$GPGSV,3,2,09,11,10,155,24,02,10,314,18,25,07,032,,10,06,277,*7F
$GPGSV,3,3,09,00,00,000,*40
$GPRMC,133117.94,A,4545.4650,N,00306.6685,E,015.1,230.7,010310,000.1,W,A*22
$GPGGA,133117.94,4545.4650,N,00306.6685,E,1,05,02.1,00402.1,M,0047.4,M,,*5E
$GPGSA,A,3,23,13,04,20,11,,,,,,,,03.3,02.1,02.6*00
$GPGSV,3,1,09,23,76,067,47,13,68,212,40,04,52,297,40,20,49,084,38*7A
$GPGSV,3,2,09,11,10,155,27,02,10,314,17,25,07,032,,10,06,277,*73
$GPGSV,3,3,09,00,00,000,*40
$GPRMC,133118.94,A,4545.4624,N,00306.6642,E,014.2,229.8,010310,000.1,W,A*20
$GPGGA,133118.94,4545.4624,N,00306.6642,E,1,05,02.1,00401.8,M,0047.4,M,,*53
$GPGSA,A,3,23,13,04,20,11,,,,,,,,03.3,02.1,02.6*00
$GPGSV,3,1,09,23,76,067,47,13,68,212,40,04,52,297,40,20,49,084,39*7B
$GPGSV,3,2,09,11,10,155,28,02,10,314,18,25,07,032,,10,06,277,*73
$GPGSV,3,3,09,00,00,000,*40
$GPRMC,133119.94,A,4545.4595,N,00306.6603,E,013.2,229.4,010310,000.1,W,A*26
$GPGGA,133119.94,4545.4595,N,00306.6603,E,1,04,03.0,00400.0,M,0047.4,M,,*56
$GPGSA,A,3,23,13,04,20,,,,,,,,,07.1,03.0,06.4*00
$GPGSV,3,1,09,23,76,067,47,13,68,212,40,04,52,297,40,20,49,084,40*75
$GPGSV,3,2,09,11,10,155,28,02,10,314,17,25,07,032,,10,06,277,*7C
$GPGSV,3,3,09,00,00,000,*40
$GPRMC,133120.94,A,4545.4574,N,00306.6565,E,012.0,229.2,010310,000.1,W,A*25
$GPGGA,133120.94,4545.4574,N,00306.6565,E,1,04,03.0,00402.0,M,0047.4,M,,*52
$GPGSA,A,3,23,13,04,20,,,,,,,,,07.1,03.0,06.4*00
$GPGSV,3,1,09,23,76,067,47,13,68,212,40,04,52,297,41,20,49,084,41*75
$GPGSV,3,2,09,11,10,155,28,02,10,314,16,25,07,032,,10,06,277,*7D
$GPGSV,3,3,09,00,00,000,*40
$GPRMC,133121.94,A,4545.4557,N,00306.6532,E,010.1,229.4,010310,000.1,W,A*22
$GPGGA,133121.94,4545.4557,N,00306.6532,E,1,04,03.0,00402.8,M,0047.4,M,,*58
$GPGSA,A,3,23,13,04,20,,,,,,,,,07.1,03.0,06.4*00
$GPGSV,3,1,09,23,76,067,47,13,68,212,41,04,52,297,41,20,48,085,41*74
$GPGSV,3,2,09,11,10,155,26,02,10,314,16,25,07,032,,10,06,277,*73
$GPGSV,3,3,09,00,00,000,*40
$GPRMC,133122.94,A,4545.4539,N,00306.6508,E,008.9,229.6,010310,000.1,W,A*23
$GPGGA,133122.94,4545.4539,N,00306.6508,E,1,04,03.0,00402.6,M,0047.4,M,,*54
$GPGSA,A,3,23,13,04,20,,,,,,,,,07.1,03.0,06.4*00
$GPGSV,3,1,09,23,76,067,46,13,68,212,41,04,52,297,40,20,48,085,41*74
$GPGSV,3,2,09,11,10,155,26,02,10,314,16,25,07,032,,10,06,277,*73
$GPGSV,3,3,09,00,00,000,*40
$GPRMC,133123.94,A,4545.4526,N,00306.6485,E,007.9,229.4,010310,000.1,W,A*25
$GPGGA,133123.94,4545.4526,N,00306.6485,E,1,04,03.0,00403.2,M,0047.4,M,,*5A
$GPGSA,A,3,23,13,04,20,,,,,,,,,07.1,03.0,06.4*00
$GPGSV,3,1,09,23,76,067,46,13,68,212,41,04,52,297,40,20,48,085,42*77
$GPGSV,3,2,09,11,10,155,25,02,10,314,17,25,07,032,,10,06,277,*71
$GPGSV,3,3,09,00,00,000,*40
$GPRMC,133124.94,A,4545.4515,N,00306.6471,E,007.0,229.2,010310,000.1,W,A*26
$GPGGA,133124.94,4545.4515,N,00306.6471,E,1,04,03.0,00402.9,M,0047.4,M,,*5C
$GPGSA,A,3,23,13,04,20,,,,,,,,,07.1,03.0,06.4*00
$GPGSV,3,1,09,23,76,067,46,13,68,212,41,04,52,297,40,20,48,085,42*77
$GPGSV,3,2,09,11,10,155,25,02,10,314,16,25,07,032,,10,06,277,*70
$GPGSV,3,3,09,00,00,000,*40
$GPRMC,133125.94,A,4545.4503,N,00306.6452,E,006.3,228.6,010310,000.1,W,A*26
$GPGGA,133125.94,4545.4503,N,00306.6452,E,1,05,02.1,00401.8,M,0047.4,M,,*58
$GPGSA,A,3,23,13,04,20,11,,,,,,,,03.3,02.1,02.6*00
$GPGSV,3,1,09,23,76,067,46,13,68,212,41,04,52,297,40,20,48,085,42*77
$GPGSV,3,2,09,11,10,155,26,02,10,314,16,25,07,032,,10,06,277,*73
$GPGSV,3,3,09,00,00,000,*40
$GPRMC,133126.94,A,4545.4490,N,00306.6432,E,005.8,228.0,010310,000.1,W,A*26
$GPGGA,133126.94,4545.4490,N,00306.6432,E,1,05,02.1,00401.4,M,0047.4,M,,*5A
$GPGSA,A,3,23,13,04,20,11,,,,,,,,03.3,02.1,02.6*00
$GPGSV,3,1,09,23,76,067,46,13,68,212,41,04,52,297,39,20,48,085,42*79
$GPGSV,3,2,09,11,10,155,28,02,10,314,16,25,07,032,,10,06,277,*7D
$GPGSV,3,3,09,00,00,000,*40
$GPRMC,133127.94,A,4545.4477,N,00306.6413,E,005.6,227.4,010310,000.1,W,A*28
$GPGGA,133127.94,4545.4477,N,00306.6413,E,1,05,02.1,00401.0,M,0047.4,M,,*55
$GPGSA,A,3,23,13,04,20,11,,,,,,,,03.3,02.1,02.6*00
$GPGSV,3,1,09,23,76,067,46,13,68,212,41,04,52,297,38,20,48,085,42*78
$GPGSV,3,2,09,11,10,155,30,02,10,314,16,25,07,032,,10,06,277,*74
$GPGSV,3,3,09,00,00,000,*40
$GPRMC,133128.94,A,4545.4464,N,00306.6394,E,006.5,227.0,010310,000.1,W,A*29
$GPGGA,133128.94,4545.4464,N,00306.6394,E,1,05,02.1,00400.8,M,0047.4,M,,*59
$GPGSA,A,3,23,13,04,20,11,,,,,,,,03.3,02.1,02.6*00
$GPGSV,3,1,09,23,76,067,46,13,68,212,41,04,52,297,38,20,48,085,42*78
$GPGSV,3,2,09,11,10,155,31,02,10,314,17,25,07,032,,10,06,277,*74
$GPGSV,3,3,09,00,00,000,*40
$GPRMC,133129.94,A,4545.4448,N,00306.6369,E,007.1,227.0,010310,000.1,W,A*21
$GPGGA,133129.94,4545.4448,N,00306.6369,E,1,05,02.1,00400.4,M,0047.4,M,,*58
$GPGSA,A,3,23,13,04,20,11,,,,,,,,03.4,02.1,02.6*07
$GPGSV,3,1,09,23,76,067,46,13,68,212,41,04,52,297,39,20,48,085,42*79
$GPGSV,3,2,09,11,10,155,31,02,10,314,16,25,07,032,,10,06,277,*75
$GPGSV,3,3,09,00,00,000,*40
$GPRMC,133130.94,A,4545.4430,N,00306.6343,E,009.9,227.2,010310,000.1,W,A*2A
$GPGGA,133130.94,4545.4430,N,00306.6343,E,1,04,03.0,00399.1,M,0047.4,M,,*54
$GPGSA,A,3,23,13,04,20,,,,,,,,,07.1,03.0,06.4*00
$GPGSV,3,1,09,23,76,067,46,13,68,212,40,04,52,297,39,20,48,085,42*78
$GPGSV,3,2,09,11,10,155,30,02,10,314,16,25,07,032,,10,06,277,*74
$GPGSV,3,3,09,00,00,000,*40
$GPRMC,133131.94,A,4545.4411,N,00306.6312,E,012.1,227.0,010310,000.1,W,A*2C
$GPGGA,133131.94,4545.4411,N,00306.6312,E,1,04,07.8,00398.0,M,0047.4,M,,*5E
$GPGSA,A,3,23,13,04,20,,,,,,,,,10.1,07.8,06.4*0A
$GPGSV,3,1,09,23,76,067,46,13,68,212,39,04,52,297,38,20,48,085,41*74
$GPGSV,3,2,09,11,10,155,26,02,10,314,16,25,07,032,,10,06,277,*73
$GPGSV,3,3,09,00,00,000,*40
$GPRMC,133132.94,A,4545.4386,N,00306.6278,E,012.7,226.0,010310,000.1,W,A*2C
$GPGGA,133132.94,4545.4386,N,00306.6278,E,1,04,03.0,00398.8,M,0047.4,M,,*5D
$GPGSA,A,3,23,13,04,20,,,,,,,,,07.0,03.0,06.4*01
$GPGSV,3,1,09,23,76,067,46,13,68,212,40,04,52,297,37,20,48,085,39*7A
$GPGSV,3,2,09,11,10,155,26,02,10,314,16,25,07,032,,10,06,277,*73
$GPGSV,3,3,09,00,00,000,*40
$GPRMC,133133.94,A,4545.4353,N,00306.6242,E,015.7,225.5,010310,000.1,W,A*2D
$GPGGA,133133.94,4545.4353,N,00306.6242,E,1,04,07.7,00400.0,M,0047.4,M,,*50
$GPGSA,A,3,23,13,04,20,,,,,,,,,10.0,07.7,06.4*04
$GPGSV,3,1,09,23,76,067,45,13,68,212,40,04,52,297,35,20,48,085,37*75
$GPGSV,3,2,09,11,10,155,21,02,10,314,16,25,07,032,,10,06,277,*74
$GPGSV,3,3,09,00,00,000,*40
$GPRMC,133134.94,A,4545.4322,N,00306.6194,E,016.1,226.3,010310,000.1,W,A*24
$GPGGA,133134.94,4545.4322,N,00306.6194,E,1,04,03.0,00400.7,M,0047.4,M,,*5D
$GPGSA,A,3,23,13,04,20,,,,,,,,,07.0,03.0,06.4*01
$GPGSV,3,1,09,23,76,067,45,13,68,212,40,04,52,297,34,20,48,085,37*74
$GPGSV,3,2,09,11,10,155,24,02,10,314,,25,07,032,,10,06,277,*76
$GPGSV,3,3,09,00,00,000,*40
$GPRMC,133135.94,A,4545.4292,N,00306.6139,E,016.4,226.9,010310,000.1,W,A*27
$GPGGA,133135.94,4545.4292,N,00306.6139,E,1,04,03.0,00401.4,M,0047.4,M,,*53
$GPGSA,A,3,23,13,04,20,,,,,,,,,07.0,03.0,06.4*01
$GPGSV,3,1,09,23,76,067,45,13,68,212,40,04,52,297,35,20,48,085,37*75
$GPGSV,3,2,09,11,10,155,24,02,10,314,,25,07,032,,10,06,277,*76
$GPGSV,3,3,09,00,00,000,*40
$GPRMC,133136.94,A,4545.4259,N,00306.6089,E,017.3,227.1,010310,000.1,W,A*26
$GPGGA,133136.94,4545.4259,N,00306.6089,E,1,04,03.0,00400.8,M,0047.4,M,,*50
$GPGSA,A,3,23,13,04,20,,,,,,,,,07.0,03.0,06.4*01
$GPGSV,3,1,09,23,76,067,45,13,68,212,40,04,52,297,35,20,48,085,37*75
$GPGSV,3,2,09,11,10,155,24,02,10,314,,25,07,032,,10,06,277,*76
$GPGSV,3,3,09,00,00,000,*40
$GPRMC,133137.94,A,4545.4227,N,00306.6039,E,017.4,227.1,010310,000.1,W,A*22
$GPGGA,133137.94,4545.4227,N,00306.6039,E,1,05,02.1,00402.0,M,0047.4,M,,*58
$GPGSA,A,3,23,13,04,20,11,,,,,,,,03.4,02.1,02.6*07
$GPGSV,3,1,09,23,76,067,45,13,68,212,40,04,52,297,35,20,48,085,36*74
$GPGSV,3,2,09,11,10,155,26,02,10,314,,25,07,032,,10,06,277,*74
$GPGSV,3,3,09,00,00,000,*40
$GPRMC,133138.94,A,4545.4193,N,00306.5983,E,017.6,227.2,010310,000.1,W,A*2B
$GPGGA,133138.94,4545.4193,N,00306.5983,E,1,05,02.1,00403.0,M,0047.4,M,,*51
$GPGSA,A,3,23,13,04,20,11,,,,,,,,03.4,02.1,02.6*07
$GPGSV,3,1,09,23,76,067,45,13,68,212,40,04,52,297,36,20,48,085,36*77
$GPGSV,3,2,09,11,10,155,27,02,10,314,,25,07,032,,10,06,277,*75
$GPGSV,3,3,09,00,00,000,*40
$GPRMC,133139.94,A,4545.4157,N,00306.5928,E,017.7,227.5,010310,000.1,W,A*25
$GPGGA,133139.94,4545.4157,N,00306.5928,E,1,05,02.1,00404.7,M,0047.4,M,,*59
$GPGSA,A,3,23,13,04,20,11,,,,,,,,03.4,02.1,02.6*07
$GPGSV,3,1,09,23,76,067,45,13,68,212,40,04,52,297,37,20,48,085,37*77
$GPGSV,3,2,09,11,10,155,29,02,10,314,,25,07,032,,10,06,277,*7B
$GPGSV,3,3,09,00,00,000,*40
$GPRMC,133140.94,A,4545.4125,N,00306.5874,E,018.3,227.8,010310,000.1,W,A*20
$GPGGA,133140.94,4545.4125,N,00306.5874,E,1,05,02.1,00405.7,M,0047.4,M,,*5B
$GPGSA,A,3,23,13,04,20,11,,,,,,,,03.4,02.1,02.6*07
$GPGSV,3,1,09,23,76,067,45,13,68,212,40,04,52,297,37,20,48,085,37*77
$GPGSV,3,2,09,11,10,155,32,02,10,314,,25,07,032,,10,06,277,*71
$GPGSV,3,3,09,00,00,000,*40
$GPRMC,133141.94,A,4545.4089,N,00306.5815,E,019.1,227.9,010310,000.1,W,A*23
$GPGGA,133141.94,4545.4089,N,00306.5815,E,1,05,02.1,00406.6,M,0047.4,M,,*58
$GPGSA,A,3,23,13,04,20,11,,,,,,,,03.4,02.1,02.6*07
$GPGSV,3,1,09,23,76,067,45,13,68,212,40,04,52,297,38,20,48,085,36*79
$GPGSV,3,2,09,11,10,155,34,02,10,314,,25,07,032,,10,06,277,*77
$GPGSV,3,3,09,00,00,000,*40
$GPRMC,133142.94,A,4545.4055,N,00306.5754,E,019.3,228.0,010310,000.1,W,A*2F
$GPGGA,133142.94,4545.4055,N,00306.5754,E,1,04,03.0,00408.9,M,0047.4,M,,*50
$GPGSA,A,3,23,13,04,20,,,,,,,,,07.0,03.0,06.4*01
$GPGSV,3,1,09,23,76,067,45,13,68,212,40,04,52,297,38,20,48,085,37*78
$GPGSV,3,2,09,11,10,155,33,02,10,314,,25,07,032,,10,06,277,*70
$GPGSV,3,3,09,00,00,000,*40
$GPRMC,133143.94,A,4545.4019,N,00306.5696,E,019.4,227.9,010310,000.1,W,A*28
$GPGGA,133143.94,4545.4019,N,00306.5696,E,1,05,02.1,00410.0,M,0047.4,M,,*57
$GPGSA,A,3,23,13,04,20,11,,,,,,,,03.4,02.1,02.6*07
$GPGSV,3,1,09,23,76,067,45,13,68,212,40,04,52,297,38,20,48,085,37*78
$GPGSV,3,2,09,11,10,155,33,02,10,314,,25,07,032,,10,06,277,*70
$GPGSV,3,3,09,00,00,000,*40
$GPRMC,133144.94,A,4545.3986,N,00306.5640,E,018.6,228.3,010310,000.1,W,A*2A
$GPGGA,133144.94,4545.3986,N,00306.5640,E,1,05,02.1,00411.3,M,0047.4,M,,*51
$GPGSA,A,3,23,13,04,20,11,,,,,,,,03.4,02.1,02.6*07
$GPGSV,3,1,09,23,76,067,45,13,68,212,40,04,52,297,39,20,48,085,35*7B
$GPGSV,3,2,09,11,10,155,34,02,10,314,,25,07,032,,10,06,277,*77
$GPGSV,3,3,09,00,00,000,*40
$GPRMC,133145.94,A,4545.3951,N,00306.5585,E,018.7,228.3,010310,000.1,W,A*2A
$GPGGA,133145.94,4545.3951,N,00306.5585,E,1,04,03.0,00412.0,M,0047.4,M,,*51
$GPGSA,A,3,23,13,04,20,,,,,,,,,07.0,03.0,06.4*01
$GPGSV,3,1,09,23,76,067,45,13,68,212,40,04,52,297,39,20,48,085,34*7A
$GPGSV,3,2,09,11,10,155,32,02,10,314,,25,07,032,,10,06,277,*71
$GPGSV,3,3,09,00,00,000,*40
$GPRMC,133146.94,A,4545.3916,N,00306.5525,E,019.0,228.3,010310,000.1,W,A*26
$GPGGA,133146.94,4545.3916,N,00306.5525,E,1,04,03.0,00413.9,M,0047.4,M,,*53
$GPGSA,A,3,23,13,04,20,,,,,,,,,07.0,03.0,06.4*01
$GPGSV,3,1,09,23,76,067,45,13,68,212,40,04,52,297,39,20,48,085,34*7A
$GPGSV,3,2,09,11,10,155,30,02,10,314,,25,07,032,,10,06,277,*73
$GPGSV,3,3,09,00,00,000,*40
$GPRMC,133147.94,A,4545.3881,N,00306.5468,E,019.5,228.2,010310,000.1,W,A*24
$GPGGA,133147.94,4545.3881,N,00306.5468,E,1,04,03.0,00414.0,M,0047.4,M,,*5B
$GPGSA,A,3,23,13,04,20,,,,,,,,,07.0,03.0,06.4*01
$GPGSV,3,1,09,23,76,067,45,13,68,212,41,04,52,297,40,20,48,085,35*74
$GPGSV,3,2,09,11,10,155,27,02,10,314,,25,07,032,,10,06,277,*75
$GPGSV,3,3,09,00,00,000,*40
$GPRMC,133148.94,A,4545.3845,N,00306.5408,E,019.8,228.2,010310,000.1,W,A*28
$GPGGA,133148.94,4545.3845,N,00306.5408,E,1,04,03.0,00414.1,M,0047.4,M,,*5B
$GPGSA,A,3,23,13,04,20,,,,,,,,,07.0,03.0,06.4*01
$GPGSV,3,1,09,23,76,067,46,13,68,212,41,04,52,297,40,20,48,085,36*74
$GPGSV,3,2,09,11,10,155,26,02,10,314,,25,07,032,,10,06,277,*74
$GPGSV,3,3,09,00,00,000,*40
$GPRMC,133149.94,A,4545.3809,N,00306.5346,E,020.1,228.1,010310,000.1,W,A*2C
$GPGGA,133149.94,4545.3809,N,00306.5346,E,1,04,03.0,00416.5,M,0047.4,M,,*59
$GPGSA,A,3,23,13,04,20,,,,,,,,,07.0,03.0,06.4*01
$GPGSV,3,1,09,23,76,067,46,13,68,212,41,04,52,297,39,20,48,085,38*74
$GPGSV,3,2,09,11,10,155,25,02,10,314,,25,07,032,,10,06,277,*77
$GPGSV,3,3,09,00,00,000,*40
$GPRMC,133150.94,A,4545.3769,N,00306.5282,E,020.2,227.9,010310,000.1,W,A*20
$GPGGA,133150.94,4545.3769,N,00306.5282,E,1,05,02.1,00416.6,M,0047.4,M,,*53
$GPGSA,A,3,23,13,04,20,11,,,,,,,,03.4,02.1,02.6*07
$GPGSV,3,1,09,23,76,067,46,13,69,212,41,04,52,297,38,20,48,085,39*75
$GPGSV,3,2,09,11,10,155,29,02,10,314,,25,07,032,,10,06,277,*7B
$GPGSV,3,3,09,00,00,000,*40
$GPRMC,133151.94,A,4545.3731,N,00306.5223,E,020.3,227.9,010310,000.1,W,A*26
$GPGGA,133151.94,4545.3731,N,00306.5223,E,1,05,02.1,00416.9,M,0047.4,M,,*5B
$GPGSA,A,3,23,13,04,20,11,,,,,,,,03.4,02.1,02.6*07
$GPGSV,3,1,09,23,76,067,46,13,69,212,41,04,52,297,39,20,48,085,40*7A
$GPGSV,3,2,09,11,10,155,31,02,10,314,,25,07,032,,10,06,277,*72
$GPGSV,3,3,09,00,00,000,*40
$GPRMC,133152.94,A,4545.3693,N,00306.5164,E,020.8,227.8,010310,000.1,W,A*26
$GPGGA,133152.94,4545.3693,N,00306.5164,E,1,04,03.0,00415.9,M,0047.4,M,,*53
$GPGSA,A,3,23,13,04,20,,,,,,,,,07.0,03.0,06.4*01
$GPGSV,3,1,09,23,76,067,46,13,69,212,41,04,52,297,40,20,48,085,41*75
$GPGSV,3,2,09,11,10,155,33,02,10,314,,25,07,032,,10,06,277,*70
$GPGSV,3,3,09,00,00,000,*40
$GPRMC,133153.94,A,4545.3654,N,00306.5103,E,020.6,227.7,010310,000.1,W,A*2C
$GPGGA,133153.94,4545.3654,N,00306.5103,E,1,05,02.1,00416.3,M,0047.4,M,,*50
$GPGSA,A,3,23,13,04,20,11,,,,,,,,03.4,02.1,02.6*07
$GPGSV,3,1,09,23,76,067,46,13,69,212,41,04,52,297,41,20,48,085,41*74
$GPGSV,3,2,09,11,10,155,35,02,10,314,,25,07,032,,10,06,277,*76
$GPGSV,3,3,09,00,00,000,*40
$GPRMC,133154.94,A,4545.3617,N,00306.5045,E,019.7,227.5,010310,000.1,W,A*26
$GPGGA,133154.94,4545.3617,N,00306.5045,E,1,05,02.1,00416.6,M,0047.4,M,,*56
$GPGSA,A,3,23,13,04,20,11,,,,,,,,03.4,02.1,02.6*07
$GPGSV,3,1,09,23,76,067,46,13,69,212,41,04,52,297,41,20,48,085,41*74
$GPGSV,3,2,09,11,10,155,35,02,10,314,,25,07,032,,10,06,277,*76
$GPGSV,3,3,09,00,00,000,*40
$GPRMC,133155.94,A,4545.3584,N,00306.4988,E,018.7,228.2,010310,000.1,W,A*2E
$GPGGA,133155.94,4545.3584,N,00306.4988,E,1,04,03.0,00418.7,M,0047.4,M,,*59
$GPGSA,A,3,23,13,04,20,,,,,,,,,07.0,03.0,06.4*01
$GPGSV,3,1,09,23,76,067,46,13,69,212,41,04,52,297,41,20,48,085,41*74
$GPGSV,3,2,09,11,10,155,33,02,10,314,,25,07,032,,10,06,277,*70
$GPGSV,3,3,09,00,00,000,*40
$GPRMC,133156.94,A,4545.3554,N,00306.4929,E,017.8,230.1,010310,000.1,W,A*21
$GPGGA,133156.94,4545.3554,N,00306.4929,E,1,04,03.0,00420.7,M,0047.4,M,,*57
$GPGSA,A,3,23,13,04,20,,,,,,,,,07.0,03.0,06.4*01
$GPGSV,3,1,09,23,76,067,46,13,69,212,41,04,52,297,42,20,48,085,41*77
$GPGSV,3,2,09,11,10,155,31,02,10,314,,25,07,032,,10,06,277,*72
$GPGSV,3,3,09,00,00,000,*40
$GPRMC,133157.94,A,4545.3531,N,00306.4867,E,017.5,233.5,010310,000.1,W,A*22
$GPGGA,133157.94,4545.3531,N,00306.4867,E,1,04,03.5,00422.6,M,0047.4,M,,*58
$GPGSA,A,3,23,13,04,20,,,,,,,,,07.3,03.5,06.4*07
$GPGSV,3,1,09,23,76,067,46,13,69,212,40,04,52,297,42,20,48,085,41*76
$GPGSV,3,2,09,11,10,155,27,02,10,314,,25,07,032,,10,06,277,*75
$GPGSV,3,3,09,00,00,000,*40
$GPRMC,133158.94,A,4545.3500,N,00306.4817,E,017.2,237.0,010310,000.1,W,A*2E
$GPGGA,133158.94,4545.3500,N,00306.4817,E,1,04,07.7,00424.4,M,0047.4,M,,*50
$GPGSA,A,3,23,13,04,20,,,,,,,,,10.0,07.7,06.4*04
$GPGSV,3,1,09,23,76,067,45,13,69,212,39,04,52,297,41,20,48,085,40*79
$GPGSV,3,2,09,11,10,155,25,02,10,314,,25,07,032,,10,06,277,*77
$GPGSV,3,3,09,00,00,000,*40
$GPRMC,133159.94,A,4545.3481,N,00306.4756,E,015.8,240.9,010310,000.1,W,A*2C
$GPGGA,133159.94,4545.3481,N,00306.4756,E,1,04,03.0,00423.6,M,0047.4,M,,*55
$GPGSA,A,3,23,13,04,20,,,,,,,,,07.0,03.0,06.4*01
$GPGSV,3,1,09,23,75,066,46,13,69,212,39,04,52,297,39,20,48,085,40*77
$GPGSV,3,2,09,11,10,155,26,02,10,314,,25,07,032,,10,06,277,*74
$GPGSV,3,3,09,00,00,000,*40
$GPRMC,133200.94,A,4545.3468,N,00306.4702,E,014.1,246.8,010310,000.1,W,A*2A
$GPGGA,133200.94,4545.3468,N,00306.4702,E,1,05,02.1,00423.1,M,0047.4,M,,*5A
$GPGSA,A,3,23,13,04,20,11,,,,,,,,03.4,02.1,02.6*07
$GPGSV,3,1,09,23,75,066,47,13,69,212,38,04,52,297,37,20,48,085,40*79
$GPGSV,3,2,09,11,10,155,30,02,10,314,,25,07,032,,10,06,277,*73
$GPGSV,3,3,09,00,00,000,*40
$GPRMC,133201.94,A,4545.3456,N,00306.4655,E,011.7,248.0,010310,000.1,W,A*20
$GPGGA,133201.94,4545.3456,N,00306.4655,E,1,04,03.0,00422.0,M,0047.4,M,,*54
$GPGSA,A,3,23,13,04,20,,,,,,,,,07.0,03.0,06.4*01
$GPGSV,3,1,09,23,75,066,48,13,69,212,38,04,52,297,37,20,48,085,41*77
$GPGSV,3,2,09,11,10,155,30,02,10,314,,25,07,032,,10,06,277,*73
$GPGSV,3,3,09,00,00,000,*40
$GPRMC,133202.94,A,4545.3453,N,00306.4616,E,009.8,253.9,010310,000.1,W,A*24
$GPGGA,133202.94,4545.3453,N,00306.4616,E,1,05,02.1,00421.7,M,0047.4,M,,*50
$GPGSA,A,3,23,13,04,20,11,,,,,,,,03.4,02.1,02.6*07
$GPGSV,3,1,09,23,75,066,49,13,69,212,38,04,52,297,37,20,48,085,42*75
$GPGSV,3,2,09,11,10,155,30,02,10,314,,25,07,032,,10,06,277,*73
$GPGSV,3,3,09,00,00,000,*40
$GPRMC,133203.94,A,4545.3449,N,00306.4581,E,008.7,260.6,010310,000.1,W,A*22
$GPGGA,133203.94,4545.3449,N,00306.4581,E,1,05,02.1,00422.0,M,0047.4,M,,*53
$GPGSA,A,3,23,13,04,20,11,,,,,,,,03.4,02.1,02.6*07
$GPGSV,3,1,09,23,75,066,49,13,69,212,37,04,52,297,39,20,48,085,44*72
$GPGSV,3,2,09,11,10,155,32,02,10,314,36,25,07,032,,10,06,277,*74
$GPGSV,3,3,09,00,00,000,*40
$GPRMC,133204.94,A,4545.3459,N,00306.4557,E,007.2,269.1,010310,000.1,W,A*2B
$GPGGA,133204.94,4545.3459,N,00306.4557,E,1,05,02.1,00421.0,M,0047.4,M,,*5D
$GPGSA,A,3,23,13,04,20,11,,,,,,,,03.4,02.1,02.6*07
$GPGSV,3,1,09,23,75,066,49,13,69,212,37,04,52,297,40,20,48,085,45*7D
$GPGSV,3,2,09,11,10,155,34,02,10,314,35,25,07,032,,10,06,277,*71
$GPGSV,3,3,09,00,00,000,*40
$GPRMC,133205.94,A,4545.3466,N,00306.4531,E,006.9,280.1,010310,000.1,W,A*2B
$GPGGA,133205.94,4545.3466,N,00306.4531,E,1,06,01.5,00420.8,M,0047.4,M,,*5D
$GPGSA,A,3,23,13,04,20,11,02,,,,,,,02.0,01.5,01.3*01
$GPGSV,3,1,09,23,75,066,48,13,69,212,37,04,52,297,40,20,48,085,47*7E
$GPGSV,3,2,09,11,10,155,35,02,10,314,35,25,07,032,,10,06,277,*70
$GPGSV,3,3,09,00,00,000,*40
$GPRMC,133206.94,A,4545.3480,N,00306.4515,E,006.9,291.1,010310,000.1,W,A*26
$GPGGA,133206.94,4545.3480,N,00306.4515,E,1,06,01.5,00420.1,M,0047.4,M,,*59
$GPGSA,A,3,23,13,04,20,11,02,,,,,,,02.0,01.5,01.3*01
$GPGSV,3,1,09,23,75,066,48,13,69,212,37,04,52,297,40,20,48,085,48*71
$GPGSV,3,2,09,11,10,155,33,02,10,314,34,25,07,032,,10,06,277,*77
$GPGSV,3,3,09,00,00,000,*40
$GPRMC,133207.94,A,4545.3497,N,00306.4501,E,007.1,310.8,010310,000.1,W,A*2C
$GPGGA,133207.94,4545.3497,N,00306.4501,E,1,05,02.1,00419.2,M,0047.4,M,,*56
$GPGSA,A,3,23,13,04,20,11,,,,,,,,03.4,02.1,02.6*07
$GPGSV,3,1,09,23,75,066,48,13,69,212,37,04,52,297,39,20,48,085,47*70
$GPGSV,3,2,09,11,10,155,33,02,10,314,32,25,07,032,,10,06,277,*71
$GPGSV,3,3,09,00,00,000,*40
$GPRMC,133208.94,A,4545.3521,N,00306.4488,E,008.2,326.7,010310,000.1,W,A*29
$GPGGA,133208.94,4545.3521,N,00306.4488,E,1,05,02.1,00418.0,M,0047.4,M,,*56
$GPGSA,A,3,23,13,04,20,11,,,,,,,,03.4,02.1,02.6*07
$GPGSV,3,1,09,23,75,066,47,13,69,212,37,04,52,297,38,20,48,085,47*7E
$GPGSV,3,2,09,11,10,155,34,02,10,314,31,25,07,032,,10,06,277,*75
$GPGSV,3,3,09,00,00,000,*40
$GPRMC,133209.94,A,4545.3549,N,00306.4481,E,010.6,334.8,010310,000.1,W,A*2E
$GPGGA,133209.94,4545.3549,N,00306.4481,E,1,05,02.1,00418.1,M,0047.4,M,,*51
$GPGSA,A,3,23,13,04,20,11,,,,,,,,03.4,02.1,02.6*07
